車牌,datetime,日期,時間,LocationID,攝影機名稱,經度,緯度,單位
A000001,2025-08-01 00:24:14.000,2025-08-01,00:24:14,114-EN009-03320-02,2.往中山南路二段56巷,121.202966,25.03227,RealData
A000001,2025-08-01 00:25:22.000,2025-08-01,00:25:22,114-EN009-03320-03,3.往和平西路,121.202716,25.0326579999999,RealData
A000001,2025-08-01 01:13:48.000,2025-08-01,01:13:48,114-EN009-03230-04,4.往功學路,121.186634,25.046542,RealData
A000001,2025-08-01 01:15:24.000,2025-08-01,01:15:24,114-EN009-07851-02,2.往華興路,121.196197,25.056832,RealData
A000001,2025-08-01 01:15:45.000,2025-08-01,01:15:45,114-EN009-07850-03,3.往中山南路,121.198631,25.058819,RealData
A000001,2025-08-01 01:27:53.000,2025-08-01,01:27:53,114-EM005-07650-04,4.往大興西路三段外車道往永安路,121.28745,25.002601,RealData
A000001,2025-08-01 01:42:23.000,2025-08-01,01:42:23,114-EM004-07630-06,6.往蓮埔街,121.294983,25.006188,RealData
A000001,2025-08-01 01:42:36.000,2025-08-01,01:42:36,114-EM004-07630-04,4.往力行路,121.294829,25.005745,RealData
A000001,2025-08-01 01:45:26.000,2025-08-01,01:45:26,114-EM004-00180-03,3.往永安路往中山北路,121.302671,24.998849,RealData
A000001,2025-08-01 01:51:45.000,2025-08-01,01:51:45,114-EM002-00080-05,5.往中山路口往永樂街方向,121.311197,24.994716,RealData
A000001,2025-08-01 05:29:35.000,2025-08-01,05:29:35,114-EM008-00250-04,4.往春日路往健行路,121.308043,25.021063,RealData
A000001,2025-08-01 05:32:17.000,2025-08-01,05:32:17,114-EM008-07610-06,6.往春日路1488巷往巷內,121.304712,25.029458,RealData
A000001,2025-08-01 05:32:51.000,2025-08-01,05:32:51,114-ES066-05760-04,4.往民生北路一段122巷,121.30258,25.034375,RealData
A000001,2025-08-01 05:33:18.000,2025-08-01,05:33:18,114-ES066-05750-02,2.民生北路一段往春日路,121.301184,25.037695,RealData
A000001,2025-08-01 05:57:59.000,2025-08-01,05:57:59,114-EN010-03200-02,2.往三民路一段122巷,121.243754,25.104863,RealData
A000001,2025-08-01 05:59:32.000,2025-08-01,05:59:32,114-EN010-03200-02,2.往三民路一段122巷,121.243754,25.104863,RealData
A000005,2025-08-01 08:22:14.000,2025-08-01,08:22:14,114-EP040-07770-02,2.往中山東路一段,121.235457,24.955697,RealData
A000005,2025-08-01 08:24:29.000,2025-08-01,08:24:29,114-EP038-01540-04,4.往元化路,121.227941,24.955458,RealData
A000005,2025-08-01 08:38:48.000,2025-08-01,08:38:48,114-EP038-01280-04,4.往中壢後站,121.229026,24.954175,RealData
A000005,2025-08-01 08:48:12.000,2025-08-01,08:48:12,114-EP038-01340-04,4.往環中東路二段,121.228904,24.946377,RealData
A000004,2025-08-01 16:25:30.000,2025-08-01,16:25:30,114-EP043-07800-05,5.往南園二路,121.236183,24.96943,RealData
A000001,2025-08-01 19:10:55.000,2025-08-01,19:10:55,114-EM008-07610-05,5.往春日路往蘆竹,121.304503564458,25.0296748487435,RealData
A000001,2025-08-01 19:29:03.000,2025-08-01,19:29:03,114-ES068-05670-03,3.往自強西路口,121.331518,24.99336,RealData
A000005,2025-08-01 23:05:04.000,2025-08-01,23:05:04,114-EP040-01380-02,2.往永福路,121.249597,24.958036,RealData
A000005,2025-08-01 23:23:52.000,2025-08-01,23:23:52,114-EM004-00540-06,6.往北埔路往長春路,121.304433,25.001884,RealData
A000005,2025-08-01 23:49:49.000,2025-08-01,23:49:49,114-ER062-04940-06,6.往龍德路,121.251633,24.923702,RealData
A000005,2025-08-01 23:52:29.000,2025-08-01,23:52:29,114-ER062-04940-05,5.往龍南路,121.252279,24.923624,RealData
A000005,2025-08-01 23:59:05.000,2025-08-01,23:59:05,114-ER062-04940-04,4.往中正一路,121.252748,24.924093,RealData
A000001,2025-08-02 08:23:14.000,2025-08-02,08:23:14,114-ES068-05670-04,4.往壽山路口,121.330465,24.993311,RealData
A000001,2025-08-02 08:40:36.000,2025-08-02,08:40:36,114-EM005-07660-02,2.往國際路二段內車道往大興西路三段,121.287898,24.996394,RealData
A000001,2025-08-02 08:40:36.000,2025-08-02,08:40:36,114-EM005-07660-03,3.往國際路二段外車道往大興西路三段,121.287916,24.996393,RealData
A000001,2025-08-02 09:41:14.000,2025-08-02,09:41:14,114-EM004-07642-04,4.往文中二路,121.291825,25.000941,RealData
A000001,2025-08-02 09:42:12.000,2025-08-02,09:42:12,114-EM004-07641-03,3.往永安路,121.294614,25.001503,RealData
A000001,2025-08-02 09:55:31.000,2025-08-02,09:55:31,114-ES068-05670-04,4.往壽山路口,121.330465,24.993311,RealData
A000001,2025-08-02 09:55:50.000,2025-08-02,09:55:50,114-ES068-05670-03,3.往自強西路口,121.331518,24.99336,RealData
A000001,2025-08-02 11:38:21.000,2025-08-02,11:38:21,114-ES068-05670-04,4.往壽山路口,121.330465,24.993311,RealData
A000001,2025-08-02 12:05:04.000,2025-08-02,12:05:04,114-EM008-07610-06,6.往春日路1488巷往巷內,121.304712,25.029458,RealData
A000001,2025-08-02 12:07:13.000,2025-08-02,12:07:13,114-ES066-05760-04,4.往民生北路一段122巷,121.30258,25.034375,RealData
A000001,2025-08-02 12:07:49.000,2025-08-02,12:07:49,114-ES066-05750-02,2.民生北路一段往春日路,121.301184,25.037695,RealData
A000004,2025-08-02 12:54:30.000,2025-08-02,12:54:30,114-EP043-07800-05,5.往南園二路,121.236183,24.96943,RealData
A000005,2025-08-02 13:54:24.000,2025-08-02,13:54:24,114-ER061-04750-03,3.往龍泉一街,121.228725,24.929053,RealData
A000003,2025-08-02 18:24:21.000,2025-08-02,18:24:21,114-EN012-03040-03,3.往草漯外車道,121.161027,25.055986,RealData
A000003,2025-08-02 18:24:23.000,2025-08-02,18:24:23,114-EN012-03040-02,2.往草漯內車道,121.161047,25.055965,RealData
A000001,2025-08-02 20:24:00.000,2025-08-02,20:24:00,114-EN009-07850-03,3.往中山南路,121.198631,25.058819,RealData
A000001,2025-08-02 20:24:33.000,2025-08-02,20:24:33,114-EN009-07851-02,2.往華興路,121.196197,25.056832,RealData
A000001,2025-08-02 20:26:45.000,2025-08-02,20:26:45,114-EN009-03230-04,4.往功學路,121.186634,25.046542,RealData
A000005,2025-08-02 23:11:00.000,2025-08-02,23:11:00,114-ER060-07920-03,3.往環中東路二段,121.223623,24.940877,RealData
A000003,2025-08-02 23:38:26.000,2025-08-02,23:38:26,114-EN012-03040-05,5.往環區西路內車道,121.16238,25.056448,RealData
A000001,2025-08-03 00:04:29.000,2025-08-03,00:04:29,114-EN009-03230-04,4.往功學路,121.186634,25.046542,RealData
A000001,2025-08-03 00:06:12.000,2025-08-03,00:06:12,114-EN009-07851-02,2.往華興路,121.196197,25.056832,RealData
A000003,2025-08-03 00:17:05.000,2025-08-03,00:17:05,114-EN012-03040-02,2.往草漯內車道,121.161047,25.055965,RealData
A000003,2025-08-03 00:17:07.000,2025-08-03,00:17:07,114-EN012-03040-03,3.往草漯外車道,121.161027,25.055986,RealData
A000005,2025-08-03 00:27:55.000,2025-08-03,00:27:55,114-ER061-04750-03,3.往龍泉一街,121.228725,24.929053,RealData
A000005,2025-08-03 01:00:24.000,2025-08-03,01:00:24,114-EP040-07770-05,5.往中山東路一段318巷,121.235303,24.955455,RealData
A000005,2025-08-03 01:10:49.000,2025-08-03,01:10:49,114-ER062-04950-04,4.往龍福路,121.249738,24.926511,RealData
A000005,2025-08-03 01:13:38.000,2025-08-03,01:13:38,114-ER062-04950-04,4.往龍福路,121.249738,24.926511,RealData
A000005,2025-08-03 02:24:18.000,2025-08-03,02:24:18,114-ER060-07920-04,4.往金陵路三段,121.223054,24.940413,RealData
A000005,2025-08-03 02:24:41.000,2025-08-03,02:24:41,114-ER060-07920-05,5.往德育路二段,121.222857,24.940679,RealData
A000005,2025-08-03 02:30:48.000,2025-08-03,02:30:48,114-ER060-07920-03,3.往環中東路二段,121.223623,24.940877,RealData
A000001,2025-08-03 07:21:52.000,2025-08-03,07:21:52,114-EN009-07850-03,3.往中山南路,121.198631,25.058819,RealData
A000001,2025-08-03 07:27:24.000,2025-08-03,07:27:24,114-EN011-07860-03,3.往埔心,121.21621,25.056955,RealData
A000001,2025-08-03 07:40:09.000,2025-08-03,07:40:09,114-EV081-08060-03,3.往大興路,121.260122,25.020842,RealData
A000001,2025-08-03 07:40:18.000,2025-08-03,07:40:18,114-EV081-08060-04,4.往大竹路,121.260483,25.021158,RealData
A000005,2025-08-03 10:52:43.000,2025-08-03,10:52:43,114-ER062-04950-04,4.往龍福路,121.249738,24.926511,RealData
A000005,2025-08-03 11:00:28.000,2025-08-03,11:00:28,114-ER062-04950-04,4.往龍福路,121.249738,24.926511,RealData
A000005,2025-08-03 11:33:47.000,2025-08-03,11:33:47,114-EP040-01380-02,2.往永福路,121.249597,24.958036,RealData
A000005,2025-08-03 12:17:27.000,2025-08-03,12:17:27,114-EP040-01380-03,3.往普忠路231巷,121.248987,24.957882,RealData
A000005,2025-08-03 12:22:37.000,2025-08-03,12:22:37,114-EP043-07800-05,5.往南園二路,121.236183,24.96943,RealData
A000004,2025-08-03 12:33:12.000,2025-08-03,12:33:12,114-EP043-07800-05,5.往南園二路,121.236183,24.96943,RealData
A000003,2025-08-03 13:55:01.000,2025-08-03,13:55:01,114-EN012-03040-06,6.往環區西路外車道,121.162388,25.056428,RealData
A000003,2025-08-03 13:55:02.000,2025-08-03,13:55:02,114-EN012-03040-05,5.往環區西路內車道,121.16238,25.056448,RealData
A000003,2025-08-03 14:23:11.000,2025-08-03,14:23:11,114-EN012-03040-02,2.往草漯內車道,121.161047,25.055965,RealData
A000003,2025-08-03 14:23:21.000,2025-08-03,14:23:21,114-EN012-03040-03,3.往草漯外車道,121.161027,25.055986,RealData
A000005,2025-08-03 15:45:42.000,2025-08-03,15:45:42,114-ER061-04760-04,4.往建安路,121.229359,24.920045,RealData
A000005,2025-08-03 15:48:33.000,2025-08-03,15:48:33,114-EP041-07790-06,6.往龍昌路,121.244861,24.925935,RealData
A000005,2025-08-03 17:02:58.000,2025-08-03,17:02:58,114-ER061-04740-02,2.往金陵路三段88巷,121.227404,24.928252,RealData
A000005,2025-08-03 17:29:33.000,2025-08-03,17:29:33,114-ER060-07920-04,4.往金陵路三段,121.223054,24.940413,RealData
A000005,2025-08-03 17:30:46.000,2025-08-03,17:30:46,114-ER060-07920-03,3.往環中東路二段,121.223623,24.940877,RealData
A000005,2025-08-03 17:31:12.000,2025-08-03,17:31:12,114-ER060-07920-02,2.往金陵路,121.222983,24.941053,RealData
A000005,2025-08-03 18:02:42.000,2025-08-03,18:02:42,114-ER060-07920-02,2.往金陵路,121.222983,24.941053,RealData
A000005,2025-08-03 18:02:52.000,2025-08-03,18:02:52,114-ER060-07920-04,4.往金陵路三段,121.223054,24.940413,RealData
A000005,2025-08-03 20:04:39.000,2025-08-03,20:04:39,114-ER061-04750-03,3.往龍泉一街,121.228725,24.929053,RealData
A000005,2025-08-03 20:37:42.000,2025-08-03,20:37:42,114-ER061-04750-03,3.往龍泉一街,121.228725,24.929053,RealData
A000005,2025-08-03 22:17:27.000,2025-08-03,22:17:27,114-ER061-04740-02,2.往金陵路三段88巷,121.227404,24.928252,RealData
A000005,2025-08-03 22:20:32.000,2025-08-03,22:20:32,114-EP041-07790-05,5.往龍南路36巷口,121.244897,24.924797,RealData
A000001,2025-08-03 22:24:07.000,2025-08-03,22:24:07,114-EN009-07850-03,3.往中山南路,121.198631,25.058819,RealData
A000005,2025-08-03 22:28:24.000,2025-08-03,22:28:24,114-EO018-04400-05,5.往埔頂路一段357巷772弄往霄裡,121.271641,24.920279,RealData
A000005,2025-08-03 22:28:29.000,2025-08-03,22:28:29,114-EO018-04400-03,3.往埔頂路一段357巷772弄往八德中山路,121.272399,24.92032,RealData
A000005,2025-08-03 22:38:15.000,2025-08-03,22:38:15,114-ET070-05980-05,5.往興豐路,121.296877,24.931988,RealData
A000005,2025-08-03 22:45:16.000,2025-08-03,22:45:16,114-EO018-04400-04,4.往埔頂路一段357巷往八德,121.27185,24.920557,RealData
A000005,2025-08-03 22:45:45.000,2025-08-03,22:45:45,114-EO018-04400-03,3.往埔頂路一段357巷772弄往八德中山路,121.272399,24.92032,RealData
A000005,2025-08-03 22:51:22.000,2025-08-03,22:51:22,114-EP041-07790-05,5.往龍南路36巷口,121.244897,24.924797,RealData
A000005,2025-08-03 22:55:09.000,2025-08-03,22:55:09,114-ER061-04740-02,2.往金陵路三段88巷,121.227404,24.928252,RealData
A000005,2025-08-03 23:01:17.000,2025-08-03,23:01:17,114-ER061-04750-03,3.往龍泉一街,121.228725,24.929053,RealData
A000002,2025-08-04 00:08:08.000,2025-08-04,00:08:08,114-EV081-08060-02,2.往上興路,121.260614,25.02079,RealData
A000002,2025-08-04 00:08:11.000,2025-08-04,00:08:11,114-EV081-08060-04,4.往大竹路,121.260483,25.021158,RealData
A000002,2025-08-04 00:25:27.000,2025-08-04,00:25:27,114-EV081-08060-04,4.往大竹路,121.260483,25.021158,RealData
A000002,2025-08-04 00:25:46.000,2025-08-04,00:25:46,114-EV081-08060-02,2.往上興路,121.260614,25.02079,RealData
A000001,2025-08-04 05:09:58.000,2025-08-04,05:09:58,114-EN009-07851-02,2.往華興路,121.196197,25.056832,RealData
A000001,2025-08-04 05:12:50.000,2025-08-04,05:12:50,114-EN009-03230-04,4.往功學路,121.186634,25.046542,RealData
A000001,2025-08-04 05:24:37.000,2025-08-04,05:24:37,114-EN009-03230-04,4.往功學路,121.186634,25.046542,RealData
A000001,2025-08-04 05:26:13.000,2025-08-04,05:26:13,114-EN009-07851-02,2.往華興路,121.196197,25.056832,RealData
A000001,2025-08-04 05:30:30.000,2025-08-04,05:30:30,114-EN009-07850-03,3.往中山南路,121.198631,25.058819,RealData
A000001,2025-08-04 05:35:01.000,2025-08-04,05:35:01,114-EN011-07860-03,3.往埔心,121.21621,25.056955,RealData
A000003,2025-08-04 06:10:31.000,2025-08-04,06:10:31,114-EN012-03040-05,5.往環區西路內車道,121.16238,25.056448,RealData
A000005,2025-08-04 13:07:48.000,2025-08-04,13:07:48,114-EP040-07770-04,4.往中山東路二段,121.235869,24.955195,RealData
A000005,2025-08-04 13:10:27.000,2025-08-04,13:10:27,114-EP040-07770-02,2.往中山東路一段,121.235457,24.955697,RealData
A000005,2025-08-04 13:10:58.000,2025-08-04,13:10:58,114-EP040-01210-07,7.往中山東路一段,121.233181,24.958422,RealData
A000005,2025-08-04 13:15:19.000,2025-08-04,13:15:19,114-EP043-01420-03,3.往新生路,121.22876,24.964811,RealData
A000001,2025-08-04 13:50:30.000,2025-08-04,13:50:30,114-EN013-03700-06,6.往埔心里,121.254467,25.077273,RealData
A000001,2025-08-04 13:50:46.000,2025-08-04,13:50:46,114-EN013-03700-03,3.往菓林路,121.255596,25.077637,RealData
A000001,2025-08-04 14:10:40.000,2025-08-04,14:10:40,114-EV082-07050-03,3.往桃園內車道,121.286373,25.035321,RealData
A000001,2025-08-04 14:10:43.000,2025-08-04,14:10:43,114-EV082-07050-02,2.往桃園外車道,121.286365,25.035315,RealData
A000001,2025-08-04 14:12:53.000,2025-08-04,14:12:53,114-EM008-07620-08,8.往中正路外車道往南平路,121.38347,25.056802,RealData
A000001,2025-08-04 14:12:53.000,2025-08-04,14:12:53,114-EM008-07620-07,7.往中正路內車道往南平路,121.38347,25.056802,RealData
A000001,2025-08-04 16:29:25.000,2025-08-04,16:29:25,114-EM004-00090-04,4.中正路往民光路,121.303681,25.006291,RealData
A000005,2025-08-04 16:41:12.000,2025-08-04,16:41:12,114-EP048-01080-03,3.往民權路三段快車道,121.206338,24.991347,RealData
A000001,2025-08-04 17:43:19.000,2025-08-04,17:43:19,114-EN013-03700-03,3.往菓林路,121.255596,25.077637,RealData
A000001,2025-08-04 17:44:20.000,2025-08-04,17:44:20,114-EN013-03700-06,6.往埔心里,121.254467,25.077273,RealData
A000003,2025-08-04 18:08:51.000,2025-08-04,18:08:51,114-EN012-03040-02,2.往草漯內車道,121.161047,25.055965,RealData
A000003,2025-08-04 18:08:57.000,2025-08-04,18:08:57,114-EN012-03040-03,3.往草漯外車道,121.161027,25.055986,RealData
A000005,2025-08-04 18:38:07.000,2025-08-04,18:38:07,114-EP041-07790-06,6.往龍昌路,121.244861,24.925935,RealData
A000005,2025-08-04 18:38:37.000,2025-08-04,18:38:37,114-EP041-07790-05,5.往龍南路36巷口,121.244897,24.924797,RealData
A000005,2025-08-04 18:46:29.000,2025-08-04,18:46:29,114-EP041-07790-05,5.往龍南路36巷口,121.244897,24.924797,RealData
A000005,2025-08-04 22:07:33.000,2025-08-04,22:07:33,114-EP038-01280-02,2.往新興北街,121.229506,24.954372,RealData
A000001,2025-08-04 22:20:22.000,2025-08-04,22:20:22,114-EV083-07070-02,2.西濱路一段往觀音內車道,121.265947,25.118049,RealData
A000001,2025-08-04 22:22:33.000,2025-08-04,22:22:33,114-EV083-07070-03,3.西濱路一段往觀音外車道,121.266026,25.11804,RealData
A000003,2025-08-04 22:39:37.000,2025-08-04,22:39:37,114-EN012-03040-05,5.往環區西路內車道,121.16238,25.056448,RealData
A000003,2025-08-04 23:12:51.000,2025-08-04,23:12:51,114-EN012-03040-02,2.往草漯內車道,121.161047,25.055965,RealData
A000003,2025-08-04 23:13:00.000,2025-08-04,23:13:00,114-EN012-03040-03,3.往草漯外車道,121.161027,25.055986,RealData
A000001,2025-08-04 23:29:50.000,2025-08-04,23:29:50,114-EN009-03230-04,4.往功學路,121.186634,25.046542,RealData
A000001,2025-08-04 23:31:18.000,2025-08-04,23:31:18,114-EN009-07851-02,2.往華興路,121.196197,25.056832,RealData
A000001,2025-08-04 23:31:39.000,2025-08-04,23:31:39,114-EN009-07850-03,3.往中山南路,121.198631,25.058819,RealData
A000001,2025-08-05 08:00:25.000,2025-08-05,08:00:25,114-EN013-03700-03,3.往菓林路,121.255596,25.077637,RealData
A000001,2025-08-05 08:00:31.000,2025-08-05,08:00:31,114-EN013-03700-06,6.往埔心里,121.254467,25.077273,RealData
A000001,2025-08-05 08:01:15.000,2025-08-05,08:01:15,114-EM008-07590-07,7.往經國路外車道往水岸二街,121.300778,25.02762,RealData
A000001,2025-08-05 08:01:24.000,2025-08-05,08:01:24,114-EM008-07601-03,3.往經國路外車道往幸福路,121.300494,25.030512,RealData
A000001,2025-08-05 08:01:35.000,2025-08-05,08:01:35,114-EM008-07590-06,6.往經國路內車道往水岸二街,121.300791,25.027624,RealData
A000001,2025-08-05 08:02:02.000,2025-08-05,08:02:02,114-EM002-00081-03,3.往中山路往民權路方向,121.310922,24.994487,RealData
A000001,2025-08-05 08:02:03.000,2025-08-05,08:02:03,114-EM004-00090-04,4.中正路往民光路,121.303681,25.006291,RealData
A000005,2025-08-05 08:02:37.000,2025-08-05,08:02:37,114-EM005-00660-03,3.往泰山街,121.298494,24.9888,RealData
A000005,2025-08-05 08:02:40.000,2025-08-05,08:02:40,114-EM005-00660-02,2.往宏昌六街往玉山街,121.298753,24.988762,RealData
A000005,2025-08-05 08:02:47.000,2025-08-05,08:02:47,114-EP040-01380-02,2.往永福路,121.249597,24.958036,RealData
A000005,2025-08-05 08:03:12.000,2025-08-05,08:03:12,114-EM005-00660-03,3.往泰山街,121.298494,24.9888,RealData
A000005,2025-08-05 08:03:40.000,2025-08-05,08:03:40,114-EM005-00660-04,4.往宏昌六街往壽昌街,121.298463,24.988679,RealData
A000005,2025-08-05 08:03:52.000,2025-08-05,08:03:52,114-EM005-00210-04,4.往宏昌六街往國際路一段,121.292027,24.987067,RealData
A000005,2025-08-05 08:03:53.000,2025-08-05,08:03:53,114-EM005-00210-05,5.往宏昌六街往中平路,121.292344,24.98711,RealData
A000005,2025-08-05 08:04:06.000,2025-08-05,08:04:06,114-ET072-06380-04,4.往仰德大道,121.284016,24.970003,RealData
A000001,2025-08-05 08:04:06.000,2025-08-05,08:04:06,114-EM002-00081-03,3.往中山路往民權路方向,121.310922,24.994487,RealData
A000001,2025-08-05 08:04:11.000,2025-08-05,08:04:11,114-EM002-00080-05,5.往中山路口往永樂街方向,121.311197,24.994716,RealData
A000001,2025-08-05 08:04:14.000,2025-08-05,08:04:14,114-EM002-00081-03,3.往中山路往民權路方向,121.310922,24.994487,RealData
A000001,2025-08-05 08:04:21.000,2025-08-05,08:04:21,114-EM002-00081-03,3.往中山路往民權路方向,121.310922,24.994487,RealData
A000001,2025-08-05 08:04:34.000,2025-08-05,08:04:34,114-EM004-00610-04,4.往永安路往大竹,121.279966,25.010566,RealData
A000001,2025-08-05 08:04:43.000,2025-08-05,08:04:43,114-EM004-07630-04,4.往力行路,121.294829,25.005745,RealData
A000001,2025-08-05 08:04:57.000,2025-08-05,08:04:57,114-EM002-00080-04,4.往景福宮,121.311135,24.994466,RealData
A000001,2025-08-05 08:05:00.000,2025-08-05,08:05:00,114-EM004-00180-04,4.往永安路往民安路,121.302209,24.999059,RealData
A000001,2025-08-05 08:05:06.000,2025-08-05,08:05:06,114-EM004-07630-05,5.往大興西路三段,121.294681,25.005847,RealData
A000001,2025-08-05 08:06:27.000,2025-08-05,08:06:27,114-EV081-08020-03,3.往大新路,121.256105,25.018507,RealData
A000003,2025-08-05 08:11:53.000,2025-08-05,08:11:53,114-EN012-03040-05,5.往環區西路內車道,121.16238,25.056448,RealData
A000001,2025-08-05 08:31:40.000,2025-08-05,08:31:40,114-EN011-07860-03,3.往埔心,121.21621,25.056955,RealData
A000005,2025-08-05 12:45:15.000,2025-08-05,12:45:15,114-EP040-01870-04,4.福州路往徐州街,121.234799,24.9486,RealData
A000005,2025-08-05 12:50:18.000,2025-08-05,12:50:18,114-EP040-07770-03,3.往幸福街,121.235741,24.955669,RealData
A000005,2025-08-05 12:50:45.000,2025-08-05,12:50:45,114-EP040-01850-03,3.往新中北路34巷,121.235823,24.956583,RealData
A000005,2025-08-05 12:52:37.000,2025-08-05,12:52:37,114-EP040-07770-05,5.往中山東路一段318巷,121.235303,24.955455,RealData
A000001,2025-08-05 14:35:55.000,2025-08-05,14:35:55,114-EV083-07070-02,2.西濱路一段往觀音內車道,121.265947,25.118049,RealData
A000001,2025-08-05 14:37:03.000,2025-08-05,14:37:03,114-EV083-07070-03,3.西濱路一段往觀音外車道,121.266026,25.11804,RealData
A000005,2025-08-05 14:42:18.000,2025-08-05,14:42:18,114-EP040-01450-04,4.往協同街,121.240375,24.953072,RealData
A000001,2025-08-05 14:53:22.000,2025-08-05,14:53:22,114-EN009-03230-04,4.往功學路,121.186634,25.046542,RealData
A000005,2025-08-05 15:55:43.000,2025-08-05,15:55:43,114-EP040-07770-02,2.往中山東路一段,121.235457,24.955697,RealData
A000005,2025-08-05 15:56:12.000,2025-08-05,15:56:12,114-EP040-01210-07,7.往中山東路一段,121.233181,24.958422,RealData
A000005,2025-08-05 16:01:21.000,2025-08-05,16:01:21,114-EP043-07800-05,5.往南園二路,121.236183,24.96943,RealData
A000005,2025-08-05 17:12:09.000,2025-08-05,17:12:09,114-EP040-01260-04,4.往德育街,121.239208,24.958916,RealData
A000005,2025-08-05 17:12:50.000,2025-08-05,17:12:50,114-EP040-01260-04,4.往德育街,121.239208,24.958916,RealData
A000005,2025-08-05 17:13:39.000,2025-08-05,17:13:39,114-EP040-01840-03,3.往新中北路58巷,121.236458,24.956848,RealData
A000005,2025-08-05 17:15:55.000,2025-08-05,17:15:55,114-EP040-07770-06,6.往中北路二段,121.235232,24.955473,RealData
A000005,2025-08-05 18:04:39.000,2025-08-05,18:04:39,114-EP040-07770-04,4.往中山東路二段,121.235869,24.955195,RealData
A000005,2025-08-05 18:06:13.000,2025-08-05,18:06:13,114-EP040-07770-03,3.往幸福街,121.235741,24.955669,RealData
A000005,2025-08-05 18:08:34.000,2025-08-05,18:08:34,114-EP040-07780-05,5.往中原大學,121.239469,24.956933,RealData
A000005,2025-08-05 18:18:48.000,2025-08-05,18:18:48,114-EP040-01250-02,2.往普忠路579巷,121.250113,24.956656,RealData
A000003,2025-08-05 18:26:33.000,2025-08-05,18:26:33,114-EN012-03040-02,2.往草漯內車道,121.161047,25.055965,RealData
A000003,2025-08-05 18:26:35.000,2025-08-05,18:26:35,114-EN012-03040-03,3.往草漯外車道,121.161027,25.055986,RealData
A000002,2025-08-05 22:21:27.000,2025-08-05,22:21:27,114-EN011-03280-01,1.往領航北路四段內車道,121.22523,25.023555,RealData
A000002,2025-08-05 22:21:29.000,2025-08-05,22:21:29,114-EN011-03280-02,2.往領航北路四段外車道,121.225163,25.023507,RealData
A000002,2025-08-05 22:30:28.000,2025-08-05,22:30:28,114-EN011-03290-03,3.往中正路二段內車道,121.225815,25.023793,RealData
A000002,2025-08-05 22:34:26.000,2025-08-05,22:34:26,114-EV081-07110-03,3.往富國路,121.249649,25.045878,RealData
A000003,2025-08-05 23:23:48.000,2025-08-05,23:23:48,114-EN012-03040-05,5.往環區西路內車道,121.16238,25.056448,RealData
A000003,2025-08-06 00:00:45.000,2025-08-06,00:00:45,114-EN012-03040-02,2.往草漯內車道,121.161047,25.055965,RealData
A000003,2025-08-06 00:00:47.000,2025-08-06,00:00:47,114-EN012-03040-03,3.往草漯外車道,121.161027,25.055986,RealData
A000001,2025-08-06 03:20:36.000,2025-08-06,03:20:36,114-EM005-00780-03,3.往國際路一段往桃園,121.292196,24.96585,RealData
A000001,2025-08-06 03:34:33.000,2025-08-06,03:34:33,114-ET069-06140-04,4.往建國路,121.29548,24.958882,RealData
A000001,2025-08-06 03:37:47.000,2025-08-06,03:37:47,114-ET073-06050-03,3.往福國路,121.291223,24.953117,RealData
A000001,2025-08-06 03:38:38.000,2025-08-06,03:38:38,114-ET073-06050-04,4.往八德所,121.291161,24.952901,RealData
A000001,2025-08-06 03:39:18.000,2025-08-06,03:39:18,114-ET073-06360-04,4.往仁德一路,121.2892,24.947226,RealData
A000005,2025-08-06 05:34:25.000,2025-08-06,05:34:25,114-ER062-04950-04,4.往龍福路,121.249738,24.926511,RealData
A000003,2025-08-06 06:07:32.000,2025-08-06,06:07:32,114-EN012-03040-05,5.往環區西路內車道,121.16238,25.056448,RealData
A000001,2025-08-06 06:46:20.000,2025-08-06,06:46:20,114-ET073-06360-04,4.往仁德一路,121.2892,24.947226,RealData
A000001,2025-08-06 06:46:30.000,2025-08-06,06:46:30,114-ET073-06360-03,3.往大湳方向,121.289429,24.947866,RealData
A000001,2025-08-06 06:48:03.000,2025-08-06,06:48:03,114-ET073-06050-04,4.往八德所,121.291161,24.952901,RealData
A000001,2025-08-06 06:49:16.000,2025-08-06,06:49:16,114-ET073-06050-03,3.往福國路,121.291223,24.953117,RealData
A000001,2025-08-06 06:53:28.000,2025-08-06,06:53:28,114-EM005-00780-03,3.往國際路一段往桃園,121.292196,24.96585,RealData
A000001,2025-08-06 07:04:43.000,2025-08-06,07:04:43,114-EM005-07660-02,2.往國際路二段內車道往大興西路三段,121.287898,24.996394,RealData
A000001,2025-08-06 07:11:31.000,2025-08-06,07:11:31,114-EM004-00610-04,4.往永安路往大竹,121.279966,25.010566,RealData
A000001,2025-08-06 07:18:15.000,2025-08-06,07:18:15,114-EV081-08020-03,3.往大新路,121.256105,25.018507,RealData
A000001,2025-08-06 13:19:34.000,2025-08-06,13:19:34,114-EV081-08060-04,4.往大竹路,121.260483,25.021158,RealData
A000001,2025-08-06 13:19:38.000,2025-08-06,13:19:38,114-EV081-08060-03,3.往大興路,121.260122,25.020842,RealData
A000001,2025-08-06 15:38:07.000,2025-08-06,15:38:07,114-EN011-03670-05,5.往中正東路三段外車道,121.225846,25.014176,RealData
A000001,2025-08-06 15:38:10.000,2025-08-06,15:38:10,114-EN011-03670-04,4.往中正東路三段內車道,121.225849,25.014196,RealData
A000003,2025-08-06 18:28:42.000,2025-08-06,18:28:42,114-EN012-03040-02,2.往草漯內車道,121.161047,25.055965,RealData
A000003,2025-08-06 18:28:44.000,2025-08-06,18:28:44,114-EN012-03040-03,3.往草漯外車道,121.161027,25.055986,RealData
A000005,2025-08-06 19:24:46.000,2025-08-06,19:24:46,114-EM004-07642-04,4.往文中二路,121.291825,25.000941,RealData
A000005,2025-08-06 19:25:36.000,2025-08-06,19:25:36,114-EM004-07641-04,4.往正光路421巷,121.294305,25.001176,RealData
A000001,2025-08-06 20:31:07.000,2025-08-06,20:31:07,114-EV080-07100-05,5.往長興路二段外車道,121.285331,25.076476,RealData
A000001,2025-08-06 20:31:07.000,2025-08-06,20:31:07,114-EV080-07100-06,6.往長興路二段內車道,121.285323,25.076479,RealData
A000001,2025-08-06 20:48:17.000,2025-08-06,20:48:17,114-EM008-07610-05,5.往春日路往蘆竹,121.304503564458,25.0296748487435,RealData
A000001,2025-08-06 20:50:56.000,2025-08-06,20:50:56,114-EM008-00250-03,3.往春日路往大興路,121.308271,25.020247,RealData
A000001,2025-08-06 21:28:56.000,2025-08-06,21:28:56,114-ES068-05670-03,3.往自強西路口,121.331518,24.99336,RealData
A000002,2025-08-06 22:06:09.000,2025-08-06,22:06:09,114-EN011-03280-01,1.往領航北路四段內車道,121.22523,25.023555,RealData
A000002,2025-08-06 22:06:10.000,2025-08-06,22:06:10,114-EN011-03280-02,2.往領航北路四段外車道,121.225163,25.023507,RealData
A000002,2025-08-06 22:30:31.000,2025-08-06,22:30:31,114-EN011-03290-03,3.往中正路二段內車道,121.225815,25.023793,RealData
A000002,2025-08-06 22:30:59.000,2025-08-06,22:30:59,114-EV081-07110-03,3.往富國路,121.249649,25.045878,RealData
A000005,2025-08-07 00:31:28.000,2025-08-07,00:31:28,114-EM005-00660-03,3.往泰山街,121.298494,24.9888,RealData
A000005,2025-08-07 00:31:45.000,2025-08-07,00:31:45,114-EM005-00660-04,4.往宏昌六街往壽昌街,121.298463,24.988679,RealData
A000005,2025-08-07 00:37:24.000,2025-08-07,00:37:24,114-EM005-00210-04,4.往宏昌六街往國際路一段,121.292027,24.987067,RealData
A000005,2025-08-07 00:37:29.000,2025-08-07,00:37:29,114-EM005-00210-05,5.往宏昌六街往中平路,121.292344,24.98711,RealData
A000005,2025-08-07 00:41:30.000,2025-08-07,00:41:30,114-ET072-06380-04,4.往仰德大道,121.284016,24.970003,RealData
A000005,2025-08-07 00:41:55.000,2025-08-07,00:41:55,114-ET072-06370-02,2.往國際路一段,121.287157,24.970423,RealData
A000005,2025-08-07 01:13:18.000,2025-08-07,01:13:18,114-ER061-04750-03,3.往龍泉一街,121.228725,24.929053,RealData
A000005,2025-08-07 01:23:44.000,2025-08-07,01:23:44,114-ER061-04740-02,2.往金陵路三段88巷,121.227404,24.928252,RealData
A000005,2025-08-07 05:34:18.000,2025-08-07,05:34:18,114-ER062-04950-04,4.往龍福路,121.249738,24.926511,RealData
A000001,2025-08-07 16:49:44.000,2025-08-07,16:49:44,114-ES068-05670-04,4.往壽山路口,121.330465,24.993311,RealData
A000001,2025-08-07 17:05:37.000,2025-08-07,17:05:37,114-EM004-00180-04,4.往永安路往民安路,121.302209,24.999059,RealData
A000001,2025-08-07 17:09:17.000,2025-08-07,17:09:17,114-EM004-07630-04,4.往力行路,121.294829,25.005745,RealData
A000001,2025-08-07 17:09:19.000,2025-08-07,17:09:19,114-EM004-07630-05,5.往大興西路三段,121.294681,25.005847,RealData
A000001,2025-08-07 17:16:27.000,2025-08-07,17:16:27,114-EM005-07651-04,4.往大興西路三段外車道往南桃園交流道,121.286324,25.001784,RealData
A000001,2025-08-07 17:37:57.000,2025-08-07,17:37:57,114-EN009-07850-03,3.往中山南路,121.198631,25.058819,RealData
A000001,2025-08-07 17:39:39.000,2025-08-07,17:39:39,114-EN009-07851-02,2.往華興路,121.196197,25.056832,RealData
A000001,2025-08-07 17:42:38.000,2025-08-07,17:42:38,114-EN009-03230-04,4.往功學路,121.186634,25.046542,RealData
A000002,2025-08-07 17:48:13.000,2025-08-07,17:48:13,114-EQ049-01990-02,2.往光復街,121.145718,24.911042,RealData
A000001,2025-08-07 20:01:05.000,2025-08-07,20:01:05,114-EN009-03320-03,3.往和平西路,121.202716,25.0326579999999,RealData
A000001,2025-08-07 20:01:40.000,2025-08-07,20:01:40,114-EN009-03320-02,2.往中山南路二段56巷,121.202966,25.03227,RealData
A000001,2025-08-07 20:33:17.000,2025-08-07,20:33:17,114-EV081-08020-03,3.往大新路,121.256105,25.018507,RealData
A000001,2025-08-07 20:33:22.000,2025-08-07,20:33:22,114-EV081-08020-04,4.往大新一街,121.256593,25.018621,RealData
A000001,2025-08-07 20:33:36.000,2025-08-07,20:33:36,114-EV081-08031-06,5.往大福路,121.257607,25.018998,RealData
A000001,2025-08-07 20:33:51.000,2025-08-07,20:33:51,114-EV081-08030-03,3.往興仁路,121.259612,25.018846,RealData
A000001,2025-08-07 21:03:47.000,2025-08-07,21:03:47,114-EN013-03260-05,5.往拔子林二路,121.267089,25.074359,RealData
A000001,2025-08-07 21:40:08.000,2025-08-07,21:40:08,114-EN013-03260-05,5.往拔子林二路,121.267089,25.074359,RealData
A000005,2025-08-08 05:35:05.000,2025-08-08,05:35:05,114-ER062-04950-04,4.往龍福路,121.249738,24.926511,RealData
A000001,2025-08-08 08:04:52.000,2025-08-08,08:04:52,114-EN010-03200-02,2.往三民路一段122巷,121.243754,25.104863,RealData
A000001,2025-08-08 10:10:18.000,2025-08-08,10:10:18,114-EV083-07070-02,2.西濱路一段往觀音內車道,121.265947,25.118049,RealData
A000001,2025-08-08 10:10:31.000,2025-08-08,10:10:31,114-EV083-07070-03,3.西濱路一段往觀音外車道,121.266026,25.11804,RealData
A000001,2025-08-08 12:00:54.000,2025-08-08,12:00:54,114-EP048-01080-03,3.往民權路三段快車道,121.206338,24.991347,RealData
A000001,2025-08-08 12:00:57.000,2025-08-08,12:00:57,114-EP048-01080-04,4.往民權路三段慢車道,121.206263,24.991308,RealData
A000001,2025-08-08 12:27:08.000,2025-08-08,12:27:08,114-EP043-07800-05,5.往南園二路,121.236183,24.96943,RealData
A000001,2025-08-08 13:48:44.000,2025-08-08,13:48:44,114-EV081-08060-03,3.往大興路,121.260122,25.020842,RealData
A000001,2025-08-08 13:48:57.000,2025-08-08,13:48:57,114-EV081-08060-04,4.往大竹路,121.260483,25.021158,RealData
A000001,2025-08-08 13:57:29.000,2025-08-08,13:57:29,114-EV081-08060-03,3.往大興路,121.260122,25.020842,RealData
A000001,2025-08-08 13:57:34.000,2025-08-08,13:57:34,114-EV081-08060-02,2.往上興路,121.260614,25.02079,RealData
A000005,2025-08-08 18:23:24.000,2025-08-08,18:23:24,114-EP040-01870-04,4.福州路往徐州街,121.234799,24.9486,RealData
A000005,2025-08-08 18:27:00.000,2025-08-08,18:27:00,114-EP038-01280-02,2.往新興北街,121.229506,24.954372,RealData
A000005,2025-08-08 19:08:43.000,2025-08-08,19:08:43,114-EP038-01280-03,3.往東明街,121.229187,24.954145,RealData
A000005,2025-08-08 19:46:03.000,2025-08-08,19:46:03,114-EP041-01350-03,3.往龍東八街,121.252989,24.931129,RealData
A000005,2025-08-08 20:47:07.000,2025-08-08,20:47:07,114-ER062-04950-04,4.往龍福路,121.249738,24.926511,RealData
A000002,2025-08-08 21:46:50.000,2025-08-08,21:46:50,114-EN011-03290-03,3.往中正路二段內車道,121.225815,25.023793,RealData
A000002,2025-08-08 21:51:13.000,2025-08-08,21:51:13,114-EV081-07110-03,3.往富國路,121.249649,25.045878,RealData
A000002,2025-08-08 22:16:46.000,2025-08-08,22:16:46,114-EM007-07701-04,4.往龍安街往國強一街,121.278099,24.993422,RealData
A000002,2025-08-08 22:19:00.000,2025-08-08,22:19:00,114-EM007-00750-03,3.往國強十一街往國豐十街,121.275364,24.991079,RealData
A000002,2025-08-08 22:19:43.000,2025-08-08,22:19:43,114-EM007-00750-04,4.往國強十一街往國豐七街,121.27588,24.991267,RealData
A000002,2025-08-08 22:27:06.000,2025-08-08,22:27:06,114-EV081-08060-02,2.往上興路,121.260614,25.02079,RealData
A000002,2025-08-08 22:27:09.000,2025-08-08,22:27:09,114-EV081-08060-04,4.往大竹路,121.260483,25.021158,RealData
A000001,2025-08-08 22:38:09.000,2025-08-08,22:38:09,114-EV083-07070-02,2.西濱路一段往觀音內車道,121.265947,25.118049,RealData
A000001,2025-08-08 22:38:26.000,2025-08-08,22:38:26,114-EV083-07070-03,3.西濱路一段往觀音外車道,121.266026,25.11804,RealData
A000005,2025-08-08 23:20:30.000,2025-08-08,23:20:30,114-EP040-07770-05,5.往中山東路一段318巷,121.235303,24.955455,RealData
A000005,2025-08-08 23:21:55.000,2025-08-08,23:21:55,114-EP040-07780-07,7.往中北路二段,121.237774,24.956357,RealData
A000005,2025-08-08 23:22:18.000,2025-08-08,23:22:18,114-EP040-07780-04,4.往新中北路,121.239187,24.957125,RealData
A000005,2025-08-08 23:23:53.000,2025-08-08,23:23:53,114-EP040-01260-04,4.往德育街,121.239208,24.958916,RealData
A000005,2025-08-08 23:24:19.000,2025-08-08,23:24:19,114-EP040-01260-02,2.往中原大學,121.240286,24.959303,RealData
A000005,2025-08-08 23:26:00.000,2025-08-08,23:26:00,114-EP040-01390-03,3.往實踐路,121.247113,24.957118,RealData
A000005,2025-08-08 23:27:19.000,2025-08-08,23:27:19,114-EP040-01250-03,3.往榮民南路,121.250051,24.956937,RealData
A000005,2025-08-08 23:46:59.000,2025-08-08,23:46:59,114-EP040-01250-03,3.往榮民南路,121.250051,24.956937,RealData
A000005,2025-08-08 23:48:04.000,2025-08-08,23:48:04,114-EP040-01390-03,3.往實踐路,121.247113,24.957118,RealData
A000005,2025-08-08 23:49:12.000,2025-08-08,23:49:12,114-EP040-01260-04,4.往德育街,121.239208,24.958916,RealData
A000005,2025-08-08 23:50:08.000,2025-08-08,23:50:08,114-EP040-07780-04,4.往新中北路,121.239187,24.957125,RealData
A000005,2025-08-08 23:51:11.000,2025-08-08,23:51:11,114-EP040-07780-04,4.往新中北路,121.239187,24.957125,RealData
A000005,2025-08-09 00:08:48.000,2025-08-09,00:08:48,114-EP040-07780-05,5.往中原大學,121.239469,24.956933,RealData
A000005,2025-08-09 00:09:50.000,2025-08-09,00:09:50,114-EP040-07780-07,7.往中北路二段,121.237774,24.956357,RealData
A000005,2025-08-09 00:10:09.000,2025-08-09,00:10:09,114-EP040-07770-03,3.往幸福街,121.235741,24.955669,RealData
A000005,2025-08-09 00:11:45.000,2025-08-09,00:11:45,114-EP040-07770-06,6.往中北路二段,121.235232,24.955473,RealData
A000005,2025-08-09 00:12:52.000,2025-08-09,00:12:52,114-EP038-01000-03,3.往健行路,121.229231,24.953098,RealData
A000005,2025-08-09 00:19:34.000,2025-08-09,00:19:34,114-EP038-01280-04,4.往中壢後站,121.229026,24.954175,RealData
A000005,2025-08-09 00:19:37.000,2025-08-09,00:19:37,114-EP038-01280-02,2.往新興北街,121.229506,24.954372,RealData
A000005,2025-08-09 00:22:01.000,2025-08-09,00:22:01,114-EP040-07770-02,2.往中山東路一段,121.235457,24.955697,RealData
A000005,2025-08-09 00:22:20.000,2025-08-09,00:22:20,114-EP040-01210-07,7.往中山東路一段,121.233181,24.958422,RealData
A000005,2025-08-09 00:59:33.000,2025-08-09,00:59:33,114-EP040-01200-03,3.往環中東路,121.246177,24.96062,RealData
A000005,2025-08-09 01:01:17.000,2025-08-09,01:01:17,114-EP040-01380-02,2.往永福路,121.249597,24.958036,RealData
A000005,2025-08-09 01:07:56.000,2025-08-09,01:07:56,114-EP040-01250-02,2.往普忠路579巷,121.250113,24.956656,RealData
A000003,2025-08-09 08:28:19.000,2025-08-09,08:28:19,114-EN012-03040-06,6.往環區西路外車道,121.162388,25.056428,RealData
A000003,2025-08-09 08:28:20.000,2025-08-09,08:28:20,114-EN012-03040-05,5.往環區西路內車道,121.16238,25.056448,RealData
A000003,2025-08-09 08:49:22.000,2025-08-09,08:49:22,114-EN009-07851-02,2.往華興路,121.196197,25.056832,RealData
A000003,2025-08-09 09:11:41.000,2025-08-09,09:11:41,114-EN012-03040-02,2.往草漯內車道,121.161047,25.055965,RealData
A000003,2025-08-09 09:11:41.000,2025-08-09,09:11:41,114-EN012-03040-03,3.往草漯外車道,121.161027,25.055986,RealData
A000005,2025-08-09 10:14:46.000,2025-08-09,10:14:46,114-EP040-01380-03,3.往普忠路231巷,121.248987,24.957882,RealData
A000005,2025-08-09 10:20:01.000,2025-08-09,10:20:01,114-EP043-07800-05,5.往南園二路,121.236183,24.96943,RealData
A000001,2025-08-09 13:33:36.000,2025-08-09,13:33:36,114-EN009-03230-04,4.往功學路,121.186634,25.046542,RealData
A000001,2025-08-09 13:35:36.000,2025-08-09,13:35:36,114-EN009-07851-03,3.往長興街,121.196584,25.057492,RealData
A000001,2025-08-09 13:35:37.000,2025-08-09,13:35:37,114-EN009-07851-02,2.往華興路,121.196197,25.056832,RealData
A000001,2025-08-09 14:06:41.000,2025-08-09,14:06:41,114-EN010-03190-06,6.往沙崙,121.238461,25.099554,RealData
A000001,2025-08-09 14:06:55.000,2025-08-09,14:06:55,114-EN010-03190-01,1.往八里,121.240068,25.101394,RealData
A000001,2025-08-09 14:07:20.000,2025-08-09,14:07:20,114-EN010-03200-04,4.往埔心,121.242536,25.104154,RealData
A000004,2025-08-09 16:02:46.000,2025-08-09,16:02:46,114-EO020-04590-04,4.往崁津部落,121.276099,24.878577,RealData
A000004,2025-08-09 16:10:08.000,2025-08-09,16:10:08,114-EO023-04170-04,4.往內柵路二段,121.272284,24.842713,RealData
A000004,2025-08-09 16:10:12.000,2025-08-09,16:10:12,114-EO023-04170-03,3.往石門水庫,121.272211,24.842321,RealData
A000004,2025-08-09 17:12:56.000,2025-08-09,17:12:56,114-EU078-06950-04,4.往中豐路高平段,121.209405,24.837254,RealData
A000004,2025-08-09 17:13:02.000,2025-08-09,17:13:02,114-EU078-06950-02,2.往高楊南路98巷,121.210171,24.837138,RealData
A000001,2025-08-09 18:46:47.000,2025-08-09,18:46:47,114-ES063-05580-04,4.往忠義路一段外車道,121.349903,25.020451,RealData
A000001,2025-08-09 18:46:53.000,2025-08-09,18:46:53,114-ES063-05580-03,3.往忠義路一段內車道,121.349967,25.020432,RealData
A000002,2025-08-09 18:54:59.000,2025-08-09,18:54:59,114-EN011-03280-01,1.往領航北路四段內車道,121.22523,25.023555,RealData
A000002,2025-08-09 19:05:27.000,2025-08-09,19:05:27,114-EN011-03290-03,3.往中正路二段內車道,121.225815,25.023793,RealData
A000004,2025-08-09 19:58:19.000,2025-08-09,19:58:19,114-EQ049-02360-04,4.往中山北路一段,121.150644,24.903063,RealData
A000004,2025-08-09 20:02:27.000,2025-08-09,20:02:27,114-EQ050-07820-04,4.往中壢,121.16602,24.909281,RealData
A000004,2025-08-09 20:18:39.000,2025-08-09,20:18:39,114-ER060-05170-04,4.往金華街66巷,121.221206,24.94958,RealData
A000005,2025-08-09 20:44:51.000,2025-08-09,20:44:51,114-EP040-01870-04,4.福州路往徐州街,121.234799,24.9486,RealData
A000005,2025-08-09 20:47:31.000,2025-08-09,20:47:31,114-EP040-07770-02,2.往中山東路一段,121.235457,24.955697,RealData
A000005,2025-08-09 20:48:13.000,2025-08-09,20:48:13,114-EP040-01210-07,7.往中山東路一段,121.233181,24.958422,RealData
A000005,2025-08-09 20:55:59.000,2025-08-09,20:55:59,114-EP043-01420-03,3.往新生路,121.22876,24.964811,RealData
A000005,2025-08-09 20:55:59.000,2025-08-09,20:55:59,114-EP043-01420-04,4.往新生路,121.228782,24.964824,RealData
A000005,2025-08-09 21:57:25.000,2025-08-09,21:57:25,114-EP040-01200-03,3.往環中東路,121.246177,24.96062,RealData
A000005,2025-08-09 21:59:34.000,2025-08-09,21:59:34,114-EP040-01250-02,2.往普忠路579巷,121.250113,24.956656,RealData
A000005,2025-08-09 22:42:03.000,2025-08-09,22:42:03,114-EP040-01870-04,4.福州路往徐州街,121.234799,24.9486,RealData
A000005,2025-08-09 22:45:18.000,2025-08-09,22:45:18,114-EP040-07770-02,2.往中山東路一段,121.235457,24.955697,RealData
A000005,2025-08-09 22:45:43.000,2025-08-09,22:45:43,114-EP040-01210-07,7.往中山東路一段,121.233181,24.958422,RealData
A000005,2025-08-09 22:48:06.000,2025-08-09,22:48:06,114-EP043-01420-03,3.往新生路,121.22876,24.964811,RealData
A000005,2025-08-09 22:50:09.000,2025-08-09,22:50:09,114-EP043-01270-03,3.往環北路,121.223825,24.968915,RealData
A000005,2025-08-09 23:02:34.000,2025-08-09,23:02:34,114-EP040-01210-07,7.往中山東路一段,121.233181,24.958422,RealData
A000005,2025-08-09 23:03:24.000,2025-08-09,23:03:24,114-EP040-07770-05,5.往中山東路一段318巷,121.235303,24.955455,RealData
A000005,2025-08-09 23:51:48.000,2025-08-09,23:51:48,114-EP040-01870-04,4.福州路往徐州街,121.234799,24.9486,RealData
A000005,2025-08-09 23:54:01.000,2025-08-09,23:54:01,114-EP040-07770-02,2.往中山東路一段,121.235457,24.955697,RealData
A000005,2025-08-09 23:54:07.000,2025-08-09,23:54:07,114-EP040-01210-07,7.往中山東路一段,121.233181,24.958422,RealData
A000005,2025-08-09 23:56:05.000,2025-08-09,23:56:05,114-EP043-01420-04,4.往新生路,121.228782,24.964824,RealData
A000005,2025-08-09 23:56:05.000,2025-08-09,23:56:05,114-EP043-01420-03,3.往新生路,121.22876,24.964811,RealData
A000005,2025-08-10 00:05:36.000,2025-08-10,00:05:36,114-EP043-01270-03,3.往環北路,121.223825,24.968915,RealData
A000005,2025-08-10 00:16:06.000,2025-08-10,00:16:06,114-EP043-01270-03,3.往環北路,121.223825,24.968915,RealData
A000005,2025-08-10 00:18:17.000,2025-08-10,00:18:17,114-EP040-01210-07,7.往中山東路一段,121.233181,24.958422,RealData
A000005,2025-08-10 00:19:04.000,2025-08-10,00:19:04,114-EP040-07770-05,5.往中山東路一段318巷,121.235303,24.955455,RealData
A000005,2025-08-10 01:00:26.000,2025-08-10,01:00:26,114-EP040-07770-02,2.往中山東路一段,121.235457,24.955697,RealData
A000005,2025-08-10 01:00:53.000,2025-08-10,01:00:53,114-EP040-01210-07,7.往中山東路一段,121.233181,24.958422,RealData
A000005,2025-08-10 01:03:18.000,2025-08-10,01:03:18,114-EP043-01420-03,3.往新生路,121.22876,24.964811,RealData
A000005,2025-08-10 02:14:21.000,2025-08-10,02:14:21,114-EP040-07770-05,5.往中山東路一段318巷,121.235303,24.955455,RealData
A000005,2025-08-10 09:29:47.000,2025-08-10,09:29:47,114-ER062-04950-04,4.往龍福路,121.249738,24.926511,RealData
A000005,2025-08-10 09:48:39.000,2025-08-10,09:48:39,114-ER062-04950-04,4.往龍福路,121.249738,24.926511,RealData
A000005,2025-08-10 10:26:44.000,2025-08-10,10:26:44,114-EP040-07770-02,2.往中山東路一段,121.235457,24.955697,RealData
A000005,2025-08-10 10:27:36.000,2025-08-10,10:27:36,114-EP040-07770-06,6.往中北路二段,121.235232,24.955473,RealData
A000005,2025-08-10 11:13:16.000,2025-08-10,11:13:16,114-EP041-01350-03,3.往龍東八街,121.252989,24.931129,RealData
A000001,2025-08-10 13:10:35.000,2025-08-10,13:10:35,114-ES068-05670-04,4.往壽山路口,121.330465,24.993311,RealData
A000001,2025-08-10 13:20:33.000,2025-08-10,13:20:33,114-EM004-00180-04,4.往永安路往民安路,121.302209,24.999059,RealData
A000001,2025-08-10 13:23:21.000,2025-08-10,13:23:21,114-EM004-07630-04,4.往力行路,121.294829,25.005745,RealData
A000001,2025-08-10 13:24:12.000,2025-08-10,13:24:12,114-EM004-07630-05,5.往大興西路三段,121.294681,25.005847,RealData
A000001,2025-08-10 13:40:54.000,2025-08-10,13:40:54,114-EN009-07851-02,2.往華興路,121.196197,25.056832,RealData
A000001,2025-08-10 13:43:47.000,2025-08-10,13:43:47,114-EN009-03230-04,4.往功學路,121.186634,25.046542,RealData
A000003,2025-08-10 13:46:11.000,2025-08-10,13:46:11,114-EN012-03040-05,5.往環區西路內車道,121.16238,25.056448,RealData
A000003,2025-08-10 14:15:20.000,2025-08-10,14:15:20,114-EN012-03040-02,2.往草漯內車道,121.161047,25.055965,RealData
A000003,2025-08-10 14:15:23.000,2025-08-10,14:15:23,114-EN012-03040-03,3.往草漯外車道,121.161027,25.055986,RealData
A000005,2025-08-10 15:32:02.000,2025-08-10,15:32:02,114-EP040-01870-04,4.福州路往徐州街,121.234799,24.9486,RealData
A000005,2025-08-10 15:37:15.000,2025-08-10,15:37:15,114-EP040-07770-02,2.往中山東路一段,121.235457,24.955697,RealData
A000005,2025-08-10 15:37:38.000,2025-08-10,15:37:38,114-EP040-01210-07,7.往中山東路一段,121.233181,24.958422,RealData
A000005,2025-08-10 15:41:20.000,2025-08-10,15:41:20,114-EP043-01420-03,3.往新生路,121.22876,24.964811,RealData
A000005,2025-08-10 17:39:38.000,2025-08-10,17:39:38,114-EP038-01030-03,3.往康樂路,121.220475,24.955631,RealData
A000005,2025-08-10 17:41:17.000,2025-08-10,17:41:17,114-EP038-01030-04,4.往中山路,121.220928,24.955789,RealData
A000005,2025-08-10 17:42:17.000,2025-08-10,17:42:17,114-EP038-07720-05,5.往中正路,121.221956,24.956822,RealData
A000005,2025-08-10 17:54:25.000,2025-08-10,17:54:25,114-EP040-07770-06,6.往中北路二段,121.235232,24.955473,RealData
A000005,2025-08-10 18:12:20.000,2025-08-10,18:12:20,114-EP040-07770-03,3.往幸福街,121.235741,24.955669,RealData
A000005,2025-08-10 18:12:38.000,2025-08-10,18:12:38,114-EP040-07780-07,7.往中北路二段,121.237774,24.956357,RealData
A000005,2025-08-10 18:14:19.000,2025-08-10,18:14:19,114-EP040-07780-05,5.往中原大學,121.239469,24.956933,RealData
A000005,2025-08-10 18:22:52.000,2025-08-10,18:22:52,114-EP040-01250-02,2.往普忠路579巷,121.250113,24.956656,RealData
A000005,2025-08-10 18:54:22.000,2025-08-10,18:54:22,114-ER062-04950-04,4.往龍福路,121.249738,24.926511,RealData
A000004,2025-08-10 19:26:02.000,2025-08-10,19:26:02,114-EP043-01270-03,3.往環北路,121.223825,24.968915,RealData
A000005,2025-08-10 19:36:10.000,2025-08-10,19:36:10,114-EP041-01400-04,4.往林森路,121.229213,24.944372,RealData
A000005,2025-08-10 19:38:29.000,2025-08-10,19:38:29,114-ER060-07920-05,5.往德育路二段,121.222857,24.940679,RealData
A000004,2025-08-10 19:57:11.000,2025-08-10,19:57:11,114-EP043-01270-03,3.往環北路,121.223825,24.968915,RealData
A000004,2025-08-10 20:11:53.000,2025-08-10,20:11:53,114-EP038-01280-04,4.往中壢後站,121.229026,24.954175,RealData
A000005,2025-08-10 21:04:18.000,2025-08-10,21:04:18,114-EP040-01210-07,7.往中山東路一段,121.233181,24.958422,RealData
A000005,2025-08-10 21:07:43.000,2025-08-10,21:07:43,114-EP040-07770-05,5.往中山東路一段318巷,121.235303,24.955455,RealData
A000005,2025-08-10 21:08:37.000,2025-08-10,21:08:37,114-EP040-07780-07,7.往中北路二段,121.237774,24.956357,RealData
A000005,2025-08-10 21:32:20.000,2025-08-10,21:32:20,114-EP040-07780-07,7.往中北路二段,121.237774,24.956357,RealData
A000005,2025-08-10 21:32:43.000,2025-08-10,21:32:43,114-EP040-07770-03,3.往幸福街,121.235741,24.955669,RealData
A000005,2025-08-10 21:34:13.000,2025-08-10,21:34:13,114-EP040-07770-03,3.往幸福街,121.235741,24.955669,RealData
A000005,2025-08-10 21:34:35.000,2025-08-10,21:34:35,114-EP040-07770-05,5.往中山東路一段318巷,121.235303,24.955455,RealData
A000005,2025-08-10 21:53:05.000,2025-08-10,21:53:05,114-EP041-01400-04,4.往林森路,121.229213,24.944372,RealData
A000005,2025-08-10 21:55:18.000,2025-08-10,21:55:18,114-ER060-07920-05,5.往德育路二段,121.222857,24.940679,RealData
A000005,2025-08-10 22:08:31.000,2025-08-10,22:08:31,114-ER060-07920-03,3.往環中東路二段,121.223623,24.940877,RealData
A000005,2025-08-10 22:10:21.000,2025-08-10,22:10:21,114-EP041-01400-03,3.往後興路,121.229749,24.944573,RealData
A000005,2025-08-10 22:10:35.000,2025-08-10,22:10:35,114-EP040-01410-03,3.往昆明街,121.23096,24.945351,RealData
A000005,2025-08-10 22:10:40.000,2025-08-10,22:10:40,114-EP040-01410-02,2.往昆明街,121.230944,24.945361,RealData
A000001,2025-08-11 01:30:21.000,2025-08-11,01:30:21,114-EV080-07100-06,6.往長興路二段內車道,121.285323,25.076479,RealData
A000001,2025-08-11 01:44:48.000,2025-08-11,01:44:48,114-EM008-07601-03,3.往經國路外車道往幸福路,121.300494,25.030512,RealData
A000001,2025-08-11 01:45:54.000,2025-08-11,01:45:54,114-EM008-07590-06,6.往經國路內車道往水岸二街,121.300791,25.027624,RealData
A000001,2025-08-11 01:45:58.000,2025-08-11,01:45:58,114-EM008-07590-07,7.往經國路外車道往水岸二街,121.300778,25.02762,RealData
A000001,2025-08-11 04:54:39.000,2025-08-11,04:54:39,114-EM004-07630-04,4.往力行路,121.294829,25.005745,RealData
A000001,2025-08-11 04:54:41.000,2025-08-11,04:54:41,114-EM004-07630-06,6.往蓮埔街,121.294983,25.006188,RealData
A000001,2025-08-11 04:57:12.000,2025-08-11,04:57:12,114-EM004-00180-03,3.往永安路往中山北路,121.302671,24.998849,RealData
A000005,2025-08-11 05:30:00.000,2025-08-11,05:30:00,114-ER062-04950-04,4.往龍福路,121.249738,24.926511,RealData
A000001,2025-08-11 05:36:32.000,2025-08-11,05:36:32,114-EM004-00180-04,4.往永安路往民安路,121.302209,24.999059,RealData
A000001,2025-08-11 05:38:10.000,2025-08-11,05:38:10,114-EM004-07630-04,4.往力行路,121.294829,25.005745,RealData
A000001,2025-08-11 05:38:35.000,2025-08-11,05:38:35,114-EM004-07630-05,5.往大興西路三段,121.294681,25.005847,RealData
A000001,2025-08-11 05:41:46.000,2025-08-11,05:41:46,114-EM004-00610-04,4.往永安路往大竹,121.279966,25.010566,RealData
A000001,2025-08-11 14:40:44.000,2025-08-11,14:40:44,114-EV081-07180-04,4.往大竹北路15巷,121.256699,25.026196,RealData
A000001,2025-08-11 17:37:54.000,2025-08-11,17:37:54,114-EV083-07070-02,2.西濱路一段往觀音內車道,121.265947,25.118049,RealData
A000001,2025-08-11 17:59:41.000,2025-08-11,17:59:41,114-EN012-03800-02,2.園航路往雙園路內車道,121.177113,25.05791,RealData
A000001,2025-08-11 18:00:39.000,2025-08-11,18:00:39,114-EN012-08180-04,4.往環區東路,121.173958,25.050741,RealData
A000001,2025-08-11 18:02:04.000,2025-08-11,18:02:04,114-EN012-08180-03,3.往園九街,121.174001,25.051041,RealData
A000001,2025-08-11 18:56:47.000,2025-08-11,18:56:47,114-EN009-03230-04,4.往功學路,121.186634,25.046542,RealData
A000001,2025-08-11 18:59:43.000,2025-08-11,18:59:43,114-EN009-07851-02,2.往華興路,121.196197,25.056832,RealData
A000001,2025-08-11 19:00:14.000,2025-08-11,19:00:14,114-EN009-07850-03,3.往中山南路,121.198631,25.058819,RealData
A000001,2025-08-11 19:12:07.000,2025-08-11,19:12:07,114-EN010-03190-06,6.往沙崙,121.238461,25.099554,RealData
A000001,2025-08-11 19:12:31.000,2025-08-11,19:12:31,114-EN010-03190-01,1.往八里,121.240068,25.101394,RealData
A000001,2025-08-11 19:13:08.000,2025-08-11,19:13:08,114-EN010-03200-04,4.往埔心,121.242536,25.104154,RealData
A000001,2025-08-11 19:22:46.000,2025-08-11,19:22:46,114-EN013-03260-05,5.往拔子林二路,121.267089,25.074359,RealData
A000001,2025-08-11 19:36:06.000,2025-08-11,19:36:06,114-EN013-03260-03,3.往長興路四段60巷,121.267685,25.073565,RealData
A000001,2025-08-11 21:06:10.000,2025-08-11,21:06:10,114-EM008-00250-04,4.往春日路往健行路,121.308043,25.021063,RealData
A000001,2025-08-11 21:08:38.000,2025-08-11,21:08:38,114-EM008-07610-06,6.往春日路1488巷往巷內,121.304712,25.029458,RealData
A000001,2025-08-11 21:23:26.000,2025-08-11,21:23:26,114-EN013-03260-03,3.往長興路四段60巷,121.267685,25.073565,RealData
A000001,2025-08-11 21:23:55.000,2025-08-11,21:23:55,114-EN013-03260-04,4.往南崁溪堤防,121.268177,25.074554,RealData
A000001,2025-08-11 21:25:53.000,2025-08-11,21:25:53,114-EN013-03650-03,3.往南崁溪土地公廟,121.268774,25.075892,RealData
A000001,2025-08-11 21:29:19.000,2025-08-11,21:29:19,114-EN013-03260-05,5.往拔子林二路,121.267089,25.074359,RealData
A000001,2025-08-11 21:30:19.000,2025-08-11,21:30:19,114-EN013-03260-04,4.往南崁溪堤防,121.268177,25.074554,RealData
A000001,2025-08-11 21:30:39.000,2025-08-11,21:30:39,114-EN013-03650-02,2.往南崁溪河堤道路,121.269036,25.075864,RealData
A000001,2025-08-11 21:35:00.000,2025-08-11,21:35:00,114-EN013-03650-03,3.往南崁溪土地公廟,121.268774,25.075892,RealData
A000001,2025-08-11 21:39:20.000,2025-08-11,21:39:20,114-EN013-03260-04,4.往南崁溪堤防,121.268177,25.074554,RealData
A000001,2025-08-11 21:40:56.000,2025-08-11,21:40:56,114-EN013-03650-03,3.往南崁溪土地公廟,121.268774,25.075892,RealData
A000002,2025-08-11 22:44:11.000,2025-08-11,22:44:11,114-EV081-07180-02,2.往大新路,121.256728,25.025773,RealData
A000002,2025-08-11 23:08:46.000,2025-08-11,23:08:46,114-ES066-05750-02,2.民生北路一段往春日路,121.301184,25.037695,RealData
A000002,2025-08-11 23:09:16.000,2025-08-11,23:09:16,114-ES066-05760-04,4.往民生北路一段122巷,121.30258,25.034375,RealData
A000002,2025-08-11 23:09:24.000,2025-08-11,23:09:24,114-ES066-05760-03,3.往春日路,121.302968,25.033396,RealData
A000002,2025-08-11 23:21:03.000,2025-08-11,23:21:03,114-EM004-00360-05,5.往慈光街往永安路,121.297737,25.004872,RealData
A000002,2025-08-11 23:22:16.000,2025-08-11,23:22:16,114-EM004-07630-04,4.往力行路,121.294829,25.005745,RealData
A000002,2025-08-11 23:22:25.000,2025-08-11,23:22:25,114-EM004-07630-05,5.往大興西路三段,121.294681,25.005847,RealData
A000002,2025-08-11 23:25:27.000,2025-08-11,23:25:27,114-EM004-00610-04,4.往永安路往大竹,121.279966,25.010566,RealData
A000002,2025-08-11 23:30:01.000,2025-08-11,23:30:01,114-EM008-07590-07,7.往經國路外車道往水岸二街,121.300778,25.02762,RealData
A000002,2025-08-11 23:30:01.000,2025-08-11,23:30:01,114-EM008-07610-04,4.往幸福路往經國路,121.302508,25.028789,RealData
A000002,2025-08-11 23:30:03.000,2025-08-11,23:30:03,114-EM008-07590-06,6.往經國路內車道往水岸二街,121.300791,25.027624,RealData
A000002,2025-08-11 23:31:55.000,2025-08-11,23:31:55,114-EV081-07180-02,2.往大新路,121.256728,25.025773,RealData
A000005,2025-08-12 00:13:09.000,2025-08-12,00:13:09,114-EP040-01870-04,4.福州路往徐州街,121.234799,24.9486,RealData
A000005,2025-08-12 00:15:57.000,2025-08-12,00:15:57,114-EP041-01400-03,3.往後興路,121.229749,24.944573,RealData
A000005,2025-08-12 00:21:53.000,2025-08-12,00:21:53,114-EP041-01400-04,4.往林森路,121.229213,24.944372,RealData
A000005,2025-08-12 00:23:36.000,2025-08-12,00:23:36,114-ER060-07920-05,5.往德育路二段,121.222857,24.940679,RealData
A000005,2025-08-12 00:40:42.000,2025-08-12,00:40:42,114-ER060-07920-04,4.往金陵路三段,121.223054,24.940413,RealData
A000005,2025-08-12 00:43:06.000,2025-08-12,00:43:06,114-ER061-04750-03,3.往龍泉一街,121.228725,24.929053,RealData
A000005,2025-08-12 01:05:51.000,2025-08-12,01:05:51,114-EP040-07780-07,7.往中北路二段,121.237774,24.956357,RealData
A000005,2025-08-12 01:27:26.000,2025-08-12,01:27:26,114-EP040-07780-07,7.往中北路二段,121.237774,24.956357,RealData
A000005,2025-08-12 01:27:55.000,2025-08-12,01:27:55,114-EP040-07770-03,3.往幸福街,121.235741,24.955669,RealData
A000005,2025-08-12 01:27:59.000,2025-08-12,01:27:59,114-EP040-07770-04,4.往中山東路二段,121.235869,24.955195,RealData
A000001,2025-08-12 01:31:46.000,2025-08-12,01:31:46,114-EV083-08850-03,3.往坑口路,121.279679,25.081204,RealData
A000001,2025-08-12 01:31:46.000,2025-08-12,01:31:46,114-EV083-08850-06,6.往山腳橋,121.279867,25.08152,RealData
A000005,2025-08-12 01:34:54.000,2025-08-12,01:34:54,114-EP040-07770-02,2.往中山東路一段,121.235457,24.955697,RealData
A000005,2025-08-12 01:36:02.000,2025-08-12,01:36:02,114-EP038-01540-04,4.往元化路,121.227941,24.955458,RealData
A000001,2025-08-12 01:59:07.000,2025-08-12,01:59:07,114-EV081-08060-03,3.往大興路,121.260122,25.020842,RealData
A000001,2025-08-12 01:59:11.000,2025-08-12,01:59:11,114-EV081-08060-04,4.往大竹路,121.260483,25.021158,RealData
A000005,2025-08-12 01:59:28.000,2025-08-12,01:59:28,114-EP038-01340-04,4.往環中東路二段,121.228904,24.946377,RealData
A000001,2025-08-12 01:59:28.000,2025-08-12,01:59:28,114-EV081-07210-03,3.往大興十一街,121.257569,25.020881,RealData
A000005,2025-08-12 01:59:41.000,2025-08-12,01:59:41,114-EP041-01400-03,3.往後興路,121.229749,24.944573,RealData
A000005,2025-08-12 02:00:11.000,2025-08-12,02:00:11,114-EP040-01410-03,3.往昆明街,121.23096,24.945351,RealData
A000001,2025-08-12 02:00:15.000,2025-08-12,02:00:15,114-EV081-07210-05,5.往大新三街,121.257313,25.020675,RealData
A000005,2025-08-12 02:00:16.000,2025-08-12,02:00:16,114-EP040-01410-02,2.往昆明街,121.230944,24.945361,RealData
A000005,2025-08-12 06:09:36.000,2025-08-12,06:09:36,114-ER062-04950-04,4.往龍福路,121.249738,24.926511,RealData
A000003,2025-08-12 06:10:12.000,2025-08-12,06:10:12,114-EN012-03040-05,5.往環區西路內車道,121.16238,25.056448,RealData
A000001,2025-08-12 13:09:21.000,2025-08-12,13:09:21,114-EV081-07210-05,5.往大新三街,121.257313,25.020675,RealData
A000001,2025-08-12 13:09:22.000,2025-08-12,13:09:22,114-EV081-07210-03,3.往大興十一街,121.257569,25.020881,RealData
A000001,2025-08-12 13:09:38.000,2025-08-12,13:09:38,114-EV081-08060-03,3.往大興路,121.260122,25.020842,RealData
A000001,2025-08-12 13:09:49.000,2025-08-12,13:09:49,114-EV081-08060-04,4.往大竹路,121.260483,25.021158,RealData
A000001,2025-08-12 13:38:54.000,2025-08-12,13:38:54,114-EV081-07520-04,4.往福興街,121.261919,25.020254,RealData
A000001,2025-08-12 13:39:03.000,2025-08-12,13:39:03,114-EV081-07520-02,2.往大竹路449巷,121.261944,25.02081,RealData
A000001,2025-08-12 13:39:35.000,2025-08-12,13:39:35,114-EV081-08060-02,2.往上興路,121.260614,25.02079,RealData
A000001,2025-08-12 13:39:49.000,2025-08-12,13:39:49,114-EV081-08060-03,3.往大興路,121.260122,25.020842,RealData
A000001,2025-08-12 13:40:11.000,2025-08-12,13:40:11,114-EV081-07210-03,3.往大興十一街,121.257569,25.020881,RealData
A000001,2025-08-12 13:40:48.000,2025-08-12,13:40:48,114-EV081-07210-05,5.往大新三街,121.257313,25.020675,RealData
A000001,2025-08-12 14:11:48.000,2025-08-12,14:11:48,114-EN009-03320-02,2.往中山南路二段56巷,121.202966,25.03227,RealData
A000001,2025-08-12 14:12:01.000,2025-08-12,14:12:01,114-EN009-03320-03,3.往和平西路,121.202716,25.0326579999999,RealData
A000001,2025-08-12 14:55:18.000,2025-08-12,14:55:18,114-EN012-08170-04,4.往大觀路,121.179133,25.059657,RealData
A000003,2025-08-12 16:58:55.000,2025-08-12,16:58:55,114-EN012-03040-02,2.往草漯內車道,121.161047,25.055965,RealData
A000004,2025-08-12 18:04:14.000,2025-08-12,18:04:14,114-EP039-01510-03,3.往新明路,121.213521,24.957129,RealData
A000004,2025-08-12 18:04:38.000,2025-08-12,18:04:38,114-EP039-01530-02,2.往新明路,121.213142,24.958039,RealData
A000005,2025-08-12 18:06:13.000,2025-08-12,18:06:13,114-ER061-04700-02,2.往新華北路,121.251738,24.917492,RealData
A000005,2025-08-12 18:06:26.000,2025-08-12,18:06:26,114-ER061-04700-05,5.往東光路,121.252424,24.917813,RealData
A000005,2025-08-12 18:12:29.000,2025-08-12,18:12:29,114-ER061-04700-02,2.往新華北路,121.251738,24.917492,RealData
A000005,2025-08-12 18:16:00.000,2025-08-12,18:16:00,114-ER062-04940-05,5.往龍南路,121.252279,24.923624,RealData
A000005,2025-08-12 18:16:13.000,2025-08-12,18:16:13,114-ER062-04940-06,6.往龍德路,121.251633,24.923702,RealData
A000005,2025-08-12 18:17:45.000,2025-08-12,18:17:45,114-ER062-04950-04,4.往龍福路,121.249738,24.926511,RealData
A000001,2025-08-12 19:13:48.000,2025-08-12,19:13:48,114-EV083-08850-03,3.往坑口路,121.279679,25.081204,RealData
A000001,2025-08-12 19:13:52.000,2025-08-12,19:13:52,114-EV083-08850-06,6.往山腳橋,121.279867,25.08152,RealData
A000001,2025-08-12 19:33:12.000,2025-08-12,19:33:12,114-EM008-07610-05,5.往春日路往蘆竹,121.304503564458,25.0296748487435,RealData
A000001,2025-08-12 19:37:47.000,2025-08-12,19:37:47,114-EM008-00250-03,3.往春日路往大興路,121.308271,25.020247,RealData
A000001,2025-08-12 19:50:40.000,2025-08-12,19:50:40,114-ES068-05670-04,4.往壽山路口,121.330465,24.993311,RealData
A000001,2025-08-12 19:50:52.000,2025-08-12,19:50:52,114-ES068-05670-03,3.往自強西路口,121.331518,24.99336,RealData
A000005,2025-08-12 21:39:39.000,2025-08-12,21:39:39,114-EP040-01870-04,4.福州路往徐州街,121.234799,24.9486,RealData
A000005,2025-08-12 21:41:39.000,2025-08-12,21:41:39,114-EP038-01280-02,2.往新興北街,121.229506,24.954372,RealData
A000002,2025-08-12 22:04:28.000,2025-08-12,22:04:28,114-EV081-07180-02,2.往大新路,121.256728,25.025773,RealData
A000002,2025-08-12 22:33:05.000,2025-08-12,22:33:05,114-ES066-05750-02,2.民生北路一段往春日路,121.301184,25.037695,RealData
A000002,2025-08-12 22:33:50.000,2025-08-12,22:33:50,114-ES066-05760-03,3.往春日路,121.302968,25.033396,RealData
A000002,2025-08-12 22:33:52.000,2025-08-12,22:33:52,114-ES066-05760-04,4.往民生北路一段122巷,121.30258,25.034375,RealData
A000005,2025-08-12 22:35:21.000,2025-08-12,22:35:21,114-EP039-00990-04,4.往明德路,121.217113,24.956675,RealData
A000002,2025-08-12 22:35:30.000,2025-08-12,22:35:30,114-EM008-07610-04,4.往幸福路往經國路,121.302508,25.028789,RealData
A000005,2025-08-12 22:36:45.000,2025-08-12,22:36:45,114-EP039-01010-05,5.往新明路,121.216607,24.958857,RealData
A000002,2025-08-12 22:37:50.000,2025-08-12,22:37:50,114-EM008-07590-06,6.往經國路內車道往水岸二街,121.300791,25.027624,RealData
A000002,2025-08-12 22:42:03.000,2025-08-12,22:42:03,114-EM008-07580-06,6.往大興西路內車道往中正路,121.305953,25.014898,RealData
A000002,2025-08-12 22:45:59.000,2025-08-12,22:45:59,114-EM004-00360-05,5.往慈光街往永安路,121.297737,25.004872,RealData
A000002,2025-08-12 22:49:14.000,2025-08-12,22:49:14,114-EM004-07630-04,4.往力行路,121.294829,25.005745,RealData
A000002,2025-08-12 22:49:19.000,2025-08-12,22:49:19,114-EM004-07630-05,5.往大興西路三段,121.294681,25.005847,RealData
A000005,2025-08-12 22:49:38.000,2025-08-12,22:49:38,114-EP040-01200-03,3.往環中東路,121.246177,24.96062,RealData
A000005,2025-08-12 22:51:51.000,2025-08-12,22:51:51,114-EP040-01250-02,2.往普忠路579巷,121.250113,24.956656,RealData
A000002,2025-08-12 22:52:11.000,2025-08-12,22:52:11,114-EM004-00610-04,4.往永安路往大竹,121.279966,25.010566,RealData
A000002,2025-08-12 22:58:40.000,2025-08-12,22:58:40,114-EV081-07180-02,2.往大新路,121.256728,25.025773,RealData
A000005,2025-08-12 23:38:19.000,2025-08-12,23:38:19,114-EP045-01480-03,3.往中山東路三段347巷口,121.252031,24.940208,RealData
A000005,2025-08-12 23:43:56.000,2025-08-12,23:43:56,114-EP041-01400-04,4.往林森路,121.229213,24.944372,RealData
A000005,2025-08-12 23:45:36.000,2025-08-12,23:45:36,114-ER060-07920-05,5.往德育路二段,121.222857,24.940679,RealData
A000004,2025-08-13 00:03:17.000,2025-08-13,00:03:17,114-EP039-01510-03,3.往新明路,121.213521,24.957129,RealData
A000005,2025-08-13 00:30:33.000,2025-08-13,00:30:33,114-ER060-04890-06,6.往崇德街13巷,121.211727,24.94542,RealData
A000005,2025-08-13 01:09:00.000,2025-08-13,01:09:00,114-ER060-07920-04,4.往金陵路三段,121.223054,24.940413,RealData
A000005,2025-08-13 01:11:22.000,2025-08-13,01:11:22,114-ER061-04750-03,3.往龍泉一街,121.228725,24.929053,RealData
A000005,2025-08-13 05:35:58.000,2025-08-13,05:35:58,114-ER062-04950-04,4.往龍福路,121.249738,24.926511,RealData
A000003,2025-08-13 13:24:42.000,2025-08-13,13:24:42,114-EN012-03040-05,5.往環區西路內車道,121.16238,25.056448,RealData
A000001,2025-08-13 17:36:49.000,2025-08-13,17:36:49,114-EV081-07180-04,4.往大竹北路15巷,121.256699,25.026196,RealData
A000001,2025-08-13 18:07:33.000,2025-08-13,18:07:33,114-EM004-00610-04,4.往永安路往大竹,121.279966,25.010566,RealData
A000001,2025-08-13 18:08:05.000,2025-08-13,18:08:05,114-EM004-00610-06,6.往永安路往國際路二段,121.280651,25.010285,RealData
A000001,2025-08-13 18:15:03.000,2025-08-13,18:15:03,114-EM004-07641-04,4.往正光路421巷,121.294309,25.001181,RealData
A000001,2025-08-13 18:17:39.000,2025-08-13,18:17:39,114-EM004-00180-03,3.往永安路往中山北路,121.302671,24.998849,RealData
A000001,2025-08-13 18:30:29.000,2025-08-13,18:30:29,114-ES068-05670-03,3.往自強西路口,121.331518,24.99336,RealData
A000004,2025-08-13 19:13:00.000,2025-08-13,19:13:00,114-EP038-01340-05,5.往中北路二段,121.227677,24.9473,RealData
A000004,2025-08-13 19:13:31.000,2025-08-13,19:13:31,114-EP038-01340-04,4.往環中東路二段,121.228904,24.946377,RealData
A000004,2025-08-13 19:13:53.000,2025-08-13,19:13:53,114-EP041-01400-02,2.往健行路,121.229431,24.945089,RealData
A000004,2025-08-13 19:14:43.000,2025-08-13,19:14:43,114-EP041-01400-03,3.往後興路,121.229749,24.944573,RealData
A000004,2025-08-13 19:15:13.000,2025-08-13,19:15:13,114-EP040-01410-03,3.往昆明街,121.23096,24.945351,RealData
A000004,2025-08-13 19:15:18.000,2025-08-13,19:15:18,114-EP040-01410-02,2.往昆明街,121.230944,24.945361,RealData
A000004,2025-08-13 19:58:23.000,2025-08-13,19:58:23,114-EP041-01400-02,2.往健行路,121.229431,24.945089,RealData
A000004,2025-08-13 19:58:43.000,2025-08-13,19:58:43,114-EP038-01340-04,4.往環中東路二段,121.228904,24.946377,RealData
A000005,2025-08-13 21:06:15.000,2025-08-13,21:06:15,114-EP041-01400-04,4.往林森路,121.229213,24.944372,RealData
A000005,2025-08-13 21:08:11.000,2025-08-13,21:08:11,114-ER060-07920-05,5.往德育路二段,121.222857,24.940679,RealData
A000005,2025-08-13 22:08:27.000,2025-08-13,22:08:27,114-EP038-07720-05,5.往中正路,121.221985,24.956822,RealData
A000005,2025-08-13 22:08:46.000,2025-08-13,22:08:46,114-EP038-01030-03,3.往康樂路,121.220475,24.955631,RealData
A000005,2025-08-13 22:33:09.000,2025-08-13,22:33:09,114-ER060-07920-04,4.往金陵路三段,121.223054,24.940413,RealData
A000005,2025-08-13 22:36:07.000,2025-08-13,22:36:07,114-ER061-04750-03,3.往龍泉一街,121.228725,24.929053,RealData
A000005,2025-08-13 23:12:49.000,2025-08-13,23:12:49,114-EP041-07790-07,7.往龍門街,121.24357,24.926384,RealData
A000005,2025-08-13 23:16:49.000,2025-08-13,23:16:49,114-EP041-01400-05,5.往龍岡路三段,121.229696,24.944169,RealData
A000005,2025-08-13 23:18:08.000,2025-08-13,23:18:08,114-EP041-01400-04,4.往林森路,121.229213,24.944372,RealData
A000005,2025-08-13 23:20:17.000,2025-08-13,23:20:17,114-ER060-07920-05,5.往德育路二段,121.222857,24.940679,RealData
A000005,2025-08-13 23:48:45.000,2025-08-13,23:48:45,114-ER060-05330-03,3.往新德街,121.214648,24.944878,RealData
A000001,2025-08-14 00:08:58.000,2025-08-14,00:08:58,114-ES068-05670-04,4.往壽山路口,121.330465,24.993311,RealData
A000001,2025-08-14 00:19:21.000,2025-08-14,00:19:21,114-EM008-07610-06,6.往春日路1488巷往巷內,121.304712,25.029458,RealData
A000001,2025-08-14 00:33:08.000,2025-08-14,00:33:08,114-EV080-07100-03,3.往山鼻二路內車道,121.285503,25.0772859999999,RealData
A000005,2025-08-14 00:48:58.000,2025-08-14,00:48:58,114-ER060-07920-04,4.往金陵路三段,121.223054,24.940413,RealData
A000005,2025-08-14 00:52:16.000,2025-08-14,00:52:16,114-ER061-04750-03,3.往龍泉一街,121.228725,24.929053,RealData
A000001,2025-08-14 01:34:06.000,2025-08-14,01:34:06,114-EV080-07100-06,6.往長興路二段內車道,121.285323,25.076479,RealData
A000001,2025-08-14 01:50:55.000,2025-08-14,01:50:55,114-EM008-07590-06,6.往經國路內車道往水岸二街,121.300781,25.027629,RealData
A000001,2025-08-14 01:51:10.000,2025-08-14,01:51:10,114-EM008-07601-03,3.往經國路外車道往幸福路,121.300505,25.030488,RealData
A000001,2025-08-14 01:51:16.000,2025-08-14,01:51:16,114-EM008-07590-07,7.往經國路外車道往水岸二街,121.300786,25.027605,RealData
A000001,2025-08-14 01:53:34.000,2025-08-14,01:53:34,114-EM008-07580-03,3.往經國路機車道往慈文路,121.306684,25.0144,RealData
A000001,2025-08-14 01:53:34.000,2025-08-14,01:53:34,114-EM008-07580-04,4.往經國路內車道往慈文路,121.306669,25.014425,RealData
A000001,2025-08-14 01:59:57.000,2025-08-14,01:59:57,114-EM002-00080-04,4.往景福宮,121.311135,24.994466,RealData
A000001,2025-08-14 02:07:44.000,2025-08-14,02:07:44,114-EM002-00080-04,4.往景福宮,121.311135,24.994466,RealData
A000001,2025-08-14 03:34:41.000,2025-08-14,03:34:41,114-EM001-00820-05,5.往民族陸橋,121.310308,24.989078,RealData
A000001,2025-08-14 03:44:47.000,2025-08-14,03:44:47,114-ET073-06050-03,3.往福國路,121.291223,24.953117,RealData
A000001,2025-08-14 03:45:38.000,2025-08-14,03:45:38,114-ET073-06050-04,4.往八德所,121.291161,24.952901,RealData
A000001,2025-08-14 03:46:30.000,2025-08-14,03:46:30,114-ET073-06360-04,4.往仁德一路,121.2892,24.947226,RealData
A000001,2025-08-14 03:46:37.000,2025-08-14,03:46:37,114-ET073-06360-03,3.往大湳方向,121.289429,24.947866,RealData
A000005,2025-08-14 05:29:52.000,2025-08-14,05:29:52,114-ER062-04950-04,4.往龍福路,121.249738,24.926511,RealData
A000001,2025-08-14 05:45:42.000,2025-08-14,05:45:42,114-ET073-06360-04,4.往仁德一路,121.2892,24.947226,RealData
A000001,2025-08-14 05:45:54.000,2025-08-14,05:45:54,114-ET073-06360-03,3.往大湳方向,121.289429,24.947866,RealData
A000001,2025-08-14 05:46:32.000,2025-08-14,05:46:32,114-ET073-06050-04,4.往八德所,121.291161,24.952901,RealData
A000001,2025-08-14 05:47:02.000,2025-08-14,05:47:02,114-ET073-06050-03,3.往福國路,121.291223,24.953117,RealData
A000001,2025-08-14 05:51:47.000,2025-08-14,05:51:47,114-EM005-00780-03,3.往國際路一段往桃園,121.292196,24.96585,RealData
A000001,2025-08-14 05:58:34.000,2025-08-14,05:58:34,114-EM005-07660-03,3.往國際路二段外車道往大興西路三段,121.28791,24.996428,RealData
A000001,2025-08-14 05:58:39.000,2025-08-14,05:58:39,114-EM005-07660-02,2.往國際路二段內車道往大興西路三段,121.287908,24.996396,RealData
A000001,2025-08-14 06:01:37.000,2025-08-14,06:01:37,114-EM005-07651-08,8.往國際路二段外車道往永安路,121.286651,25.003162,RealData
A000001,2025-08-14 06:04:31.000,2025-08-14,06:04:31,114-EM004-00610-04,4.往永安路往大竹,121.279966,25.010566,RealData
A000001,2025-08-14 06:11:09.000,2025-08-14,06:11:09,114-EV081-08031-06,5.往大福路,121.257607,25.018998,RealData
A000001,2025-08-14 06:12:08.000,2025-08-14,06:12:08,114-EV081-08030-03,3.往興仁路,121.259612,25.018846,RealData
A000001,2025-08-14 15:06:48.000,2025-08-14,15:06:48,114-EN009-07850-03,3.往中山南路,121.198631,25.058819,RealData
A000001,2025-08-14 15:07:18.000,2025-08-14,15:07:18,114-EN009-07851-02,2.往華興路,121.196197,25.056832,RealData
A000001,2025-08-14 15:09:29.000,2025-08-14,15:09:29,114-EN009-03230-04,4.往功學路,121.186634,25.046542,RealData
A000001,2025-08-14 16:46:02.000,2025-08-14,16:46:02,114-EN012-08170-04,4.往大觀路,121.179133,25.059657,RealData
A000001,2025-08-14 17:58:13.000,2025-08-14,17:58:13,114-EV083-07260-04,4.往外社,121.298085,25.083527,RealData
A000001,2025-08-14 18:31:49.000,2025-08-14,18:31:49,114-ES063-05580-03,3.往忠義路一段內車道,121.349967,25.020432,RealData
A000001,2025-08-14 18:31:49.000,2025-08-14,18:31:49,114-ES063-05580-04,4.往忠義路一段外車道,121.349903,25.020451,RealData
A000001,2025-08-14 18:52:06.000,2025-08-14,18:52:06,114-ES068-05670-04,4.往壽山路口,121.330465,24.993311,RealData
A000005,2025-08-14 20:02:34.000,2025-08-14,20:02:34,114-ER061-04750-03,3.往龍泉一街,121.228725,24.929053,RealData
A000005,2025-08-14 20:55:34.000,2025-08-14,20:55:34,114-EP041-07790-08,8.往營德路,121.243792,24.925157,RealData
A000001,2025-08-14 20:56:04.000,2025-08-14,20:56:04,114-EM001-00340-05,5.往萬壽路二段外車道,121.323303,24.992069,RealData
A000001,2025-08-14 20:56:06.000,2025-08-14,20:56:06,114-EM001-00340-04,4.往萬壽路二段內車道,121.323293,24.992089,RealData
A000001,2025-08-14 20:59:01.000,2025-08-14,20:59:01,114-ES068-05670-03,3.往自強西路口,121.331518,24.99336,RealData
A000005,2025-08-14 21:40:37.000,2025-08-14,21:40:37,114-EP039-00990-02,2.往中明東路,121.218033,24.956801,RealData
A000001,2025-08-14 23:44:21.000,2025-08-14,23:44:21,114-ET069-06140-04,4.往建國路,121.29548,24.958882,RealData
A000001,2025-08-14 23:46:14.000,2025-08-14,23:46:14,114-ET073-06050-03,3.往福國路,121.291223,24.953117,RealData
A000001,2025-08-14 23:46:27.000,2025-08-14,23:46:27,114-ET073-06050-04,4.往八德所,121.291161,24.952901,RealData
A000001,2025-08-14 23:47:20.000,2025-08-14,23:47:20,114-ET073-06360-04,4.往仁德一路,121.2892,24.947226,RealData
A000005,2025-08-15 00:29:02.000,2025-08-15,00:29:02,114-EP038-07720-05,5.往中正路,121.221985,24.956822,RealData
A000005,2025-08-15 00:29:14.000,2025-08-15,00:29:14,114-EP038-01030-04,4.往中山路,121.220928,24.955789,RealData
A000005,2025-08-15 00:30:26.000,2025-08-15,00:30:26,114-EP038-01030-03,3.往康樂路,121.220475,24.955631,RealData
A000005,2025-08-15 01:23:37.000,2025-08-15,01:23:37,114-EP043-01270-03,3.往環北路,121.223825,24.968915,RealData
A000005,2025-08-15 01:33:55.000,2025-08-15,01:33:55,114-ER060-07920-04,4.往金陵路三段,121.223054,24.940413,RealData
A000005,2025-08-15 01:36:37.000,2025-08-15,01:36:37,114-ER061-04750-03,3.往龍泉一街,121.228725,24.929053,RealData
A000005,2025-08-15 01:57:46.000,2025-08-15,01:57:46,114-EP045-01480-03,3.往中山東路三段347巷口,121.252238,24.939897,RealData
A000005,2025-08-15 02:03:45.000,2025-08-15,02:03:45,114-EP041-01400-04,4.往林森路,121.229213,24.944372,RealData
A000005,2025-08-15 02:05:12.000,2025-08-15,02:05:12,114-ER060-07920-05,5.往德育路二段,121.222857,24.940679,RealData
A000005,2025-08-15 03:21:49.000,2025-08-15,03:21:49,114-EP038-01280-04,4.往中壢後站,121.229026,24.954175,RealData
A000005,2025-08-15 03:59:47.000,2025-08-15,03:59:47,114-EP038-01340-04,4.往環中東路二段,121.228904,24.946377,RealData
A000005,2025-08-15 04:06:25.000,2025-08-15,04:06:25,114-EP041-01400-02,2.往健行路,121.229431,24.945089,RealData
A000005,2025-08-15 04:06:27.000,2025-08-15,04:06:27,114-EP041-01400-05,5.往龍岡路三段,121.229696,24.944169,RealData
A000005,2025-08-15 04:07:00.000,2025-08-15,04:07:00,114-EP041-11110-02,2.往龍岡路二段321巷口,121.230052,24.942212,RealData
A000001,2025-08-15 04:08:11.000,2025-08-15,04:08:11,114-ET073-06360-04,4.往仁德一路,121.2892,24.947226,RealData
A000001,2025-08-15 04:08:19.000,2025-08-15,04:08:19,114-ET073-06360-03,3.往大湳方向,121.289429,24.947866,RealData
A000001,2025-08-15 04:10:07.000,2025-08-15,04:10:07,114-ET073-06050-03,3.往福國路,121.291223,24.953117,RealData
A000001,2025-08-15 04:14:47.000,2025-08-15,04:14:47,114-EM005-00780-03,3.往國際路一段往桃園,121.292196,24.96585,RealData
A000001,2025-08-15 04:20:09.000,2025-08-15,04:20:09,114-EM005-07660-03,3.往國際路二段外車道往大興西路三段,121.28791,24.996428,RealData
A000001,2025-08-15 04:21:36.000,2025-08-15,04:21:36,114-EM005-07660-02,2.往國際路二段內車道往大興西路三段,121.287908,24.996396,RealData
A000001,2025-08-15 04:22:21.000,2025-08-15,04:22:21,114-EM005-07651-08,8.往國際路二段外車道往永安路,121.286651,25.003162,RealData
A000005,2025-08-15 05:26:54.000,2025-08-15,05:26:54,114-ER062-04950-04,4.往龍福路,121.249738,24.926511,RealData
A000001,2025-08-15 05:40:56.000,2025-08-15,05:40:56,114-EV083-08850-06,6.往山腳橋,121.279874,25.081523,RealData
A000001,2025-08-15 05:41:01.000,2025-08-15,05:41:01,114-EV083-08850-03,3.往坑口路,121.279679,25.081204,RealData
A000001,2025-08-15 06:20:39.000,2025-08-15,06:20:39,114-EV083-08850-06,6.往山腳橋,121.279874,25.081523,RealData
A000001,2025-08-15 06:20:42.000,2025-08-15,06:20:42,114-EV083-08850-03,3.往坑口路,121.279679,25.081204,RealData
A000001,2025-08-15 06:36:52.000,2025-08-15,06:36:52,114-EV081-07180-04,4.往大竹北路15巷,121.256699,25.026196,RealData
A000001,2025-08-15 06:49:00.000,2025-08-15,06:49:00,114-EV081-08020-03,3.往大新路,121.256105,25.018507,RealData
A000003,2025-08-15 14:55:44.000,2025-08-15,14:55:44,114-EN012-03040-05,5.往環區西路內車道,121.16238,25.056448,RealData
A000001,2025-08-15 15:18:08.000,2025-08-15,15:18:08,114-EN009-03320-05,5.往民權路,121.20281,25.0318079999999,RealData
A000001,2025-08-15 15:18:47.000,2025-08-15,15:18:47,114-EN009-03320-03,3.往和平西路,121.202716,25.0326579999999,RealData
A000003,2025-08-15 15:25:45.000,2025-08-15,15:25:45,114-EN012-03040-02,2.往草漯內車道,121.161047,25.055965,RealData
A000003,2025-08-15 15:25:46.000,2025-08-15,15:25:46,114-EN012-03040-03,3.往草漯外車道,121.161027,25.055986,RealData
A000001,2025-08-16 01:23:38.000,2025-08-16,01:23:38,114-EN012-08170-04,4.往大觀路,121.179133,25.059657,RealData
A000001,2025-08-16 02:54:09.000,2025-08-16,02:54:09,114-EV080-07100-05,5.往長興路二段外車道,121.285331,25.076476,RealData
A000001,2025-08-16 02:54:23.000,2025-08-16,02:54:23,114-EV080-07100-06,6.往長興路二段內車道,121.285323,25.076479,RealData
A000001,2025-08-16 05:28:07.000,2025-08-16,05:28:07,114-EV081-08060-03,3.往大興路,121.260122,25.020842,RealData
A000001,2025-08-16 05:28:16.000,2025-08-16,05:28:16,114-EV081-08060-04,4.往大竹路,121.260483,25.021158,RealData
A000001,2025-08-16 05:28:38.000,2025-08-16,05:28:38,114-EV081-07210-05,5.往大新三街,121.257295,25.020669,RealData
A000001,2025-08-16 05:28:48.000,2025-08-16,05:28:48,114-EV081-07210-03,3.往大興十一街,121.257569,25.020881,RealData
A000003,2025-08-16 11:47:02.000,2025-08-16,11:47:02,114-EN012-03040-05,5.往環區西路內車道,121.16238,25.056448,RealData
A000003,2025-08-16 12:11:12.000,2025-08-16,12:11:12,114-EN012-03040-03,3.往草漯外車道,121.161027,25.055986,RealData
A000003,2025-08-16 12:11:15.000,2025-08-16,12:11:15,114-EN012-03040-02,2.往草漯內車道,121.161047,25.055965,RealData
A000003,2025-08-16 12:17:56.000,2025-08-16,12:17:56,114-EN016-03180-03,3.往大園,121.121442,25.054107,RealData
A000001,2025-08-16 15:13:56.000,2025-08-16,15:13:56,114-EN009-03320-02,2.往中山南路二段56巷,121.202966,25.03227,RealData
A000001,2025-08-16 15:14:07.000,2025-08-16,15:14:07,114-EN009-03320-03,3.往和平西路,121.202716,25.0326579999999,RealData
A000001,2025-08-16 23:18:36.000,2025-08-16,23:18:36,114-EN012-08170-04,4.往大觀路,121.179133,25.059657,RealData
A000001,2025-08-17 00:17:00.000,2025-08-17,00:17:00,114-EV083-07260-04,4.往外社,121.298085,25.083527,RealData
A000001,2025-08-17 00:39:50.000,2025-08-17,00:39:50,114-ES063-05580-03,3.往忠義路一段內車道,121.349967,25.020432,RealData
A000001,2025-08-17 00:39:51.000,2025-08-17,00:39:51,114-ES063-05580-04,4.往忠義路一段外車道,121.349903,25.020451,RealData
A000001,2025-08-17 01:00:25.000,2025-08-17,01:00:25,114-ES068-05670-04,4.往壽山路口,121.330465,24.993311,RealData
A000001,2025-08-17 01:08:52.000,2025-08-17,01:08:52,114-EM004-00180-04,4.往永安路往民安路,121.302209,24.999059,RealData
A000001,2025-08-17 01:10:32.000,2025-08-17,01:10:32,114-EM004-07630-04,4.往力行路,121.294841,25.005751,RealData
A000001,2025-08-17 01:10:36.000,2025-08-17,01:10:36,114-EM004-07630-05,5.往大興西路三段,121.294678,25.005839,RealData
A000001,2025-08-17 01:13:20.000,2025-08-17,01:13:20,114-EM004-00610-04,4.往永安路往大竹,121.279966,25.010566,RealData
A000001,2025-08-17 01:19:09.000,2025-08-17,01:19:09,114-EV081-08020-03,3.往大新路,121.256105,25.018507,RealData
A000001,2025-08-17 07:31:54.000,2025-08-17,07:31:54,114-EV081-08020-03,3.往大新路,121.256105,25.018507,RealData
A000001,2025-08-17 07:32:25.000,2025-08-17,07:32:25,114-EV081-08020-04,4.往大新一街,121.256593,25.018621,RealData
A000001,2025-08-17 07:32:31.000,2025-08-17,07:32:31,114-EV081-08031-06,5.往大福路,121.257607,25.018998,RealData
A000001,2025-08-17 07:33:31.000,2025-08-17,07:33:31,114-EV081-08030-03,3.往興仁路,121.259612,25.018846,RealData
A000001,2025-08-17 07:56:06.000,2025-08-17,07:56:06,114-EV081-08031-06,5.往大福路,121.257607,25.018998,RealData
A000001,2025-08-17 07:56:17.000,2025-08-17,07:56:17,114-EV081-08030-03,3.往興仁路,121.259612,25.018846,RealData
A000001,2025-08-17 07:56:23.000,2025-08-17,07:56:23,114-EV081-08020-04,4.往大新一街,121.256593,25.018621,RealData
A000001,2025-08-17 07:57:37.000,2025-08-17,07:57:37,114-EV081-08020-03,3.往大新路,121.256105,25.018507,RealData
A000003,2025-08-17 08:05:47.000,2025-08-17,08:05:47,114-EN012-03040-06,6.往環區西路外車道,121.162388,25.056428,RealData
A000003,2025-08-17 08:05:47.000,2025-08-17,08:05:47,114-EN012-03040-05,5.往環區西路內車道,121.16238,25.056448,RealData
A000003,2025-08-17 08:33:42.000,2025-08-17,08:33:42,114-EN012-03040-02,2.往草漯內車道,121.161047,25.055965,RealData
A000003,2025-08-17 08:33:43.000,2025-08-17,08:33:43,114-EN012-03040-03,3.往草漯外車道,121.161027,25.055986,RealData
A000001,2025-08-17 10:00:29.000,2025-08-17,10:00:29,114-EV081-08020-03,3.往大新路,121.256105,25.018507,RealData
A000001,2025-08-17 10:00:33.000,2025-08-17,10:00:33,114-EV081-08020-05,5.往中興路,121.256282,25.018269,RealData
A000001,2025-08-17 10:07:36.000,2025-08-17,10:07:36,114-EV081-07150-04,4.往龍安街二段,121.255452,25.004319,RealData
A000001,2025-08-17 10:08:35.000,2025-08-17,10:08:35,114-EV081-07150-03,3.往中壢服務區,121.255304,25.004224,RealData
A000001,2025-08-17 10:56:32.000,2025-08-17,10:56:32,114-EV081-07150-04,4.往龍安街二段,121.255452,25.004319,RealData
A000001,2025-08-17 10:57:46.000,2025-08-17,10:57:46,114-EV081-07150-03,3.往中壢服務區,121.255304,25.004224,RealData
A000001,2025-08-17 11:05:08.000,2025-08-17,11:05:08,114-EV081-08020-03,3.往大新路,121.256105,25.018507,RealData
A000001,2025-08-17 11:13:21.000,2025-08-17,11:13:21,114-EV081-07180-04,4.往大竹北路15巷,121.256699,25.026196,RealData
A000004,2025-08-17 11:15:10.000,2025-08-17,11:15:10,114-EP038-01280-04,4.往中壢後站,121.229026,24.954175,RealData
A000001,2025-08-17 11:26:19.000,2025-08-17,11:26:19,114-EN013-03410-03,3.三民路二段往三民路內車道,121.260198,25.076506,RealData
A000001,2025-08-17 12:00:11.000,2025-08-17,12:00:11,114-EN013-03700-03,3.往菓林路,121.255596,25.077637,RealData
A000001,2025-08-17 12:00:19.000,2025-08-17,12:00:19,114-EN013-03700-06,6.往埔心里,121.254467,25.077273,RealData
A000001,2025-08-17 12:13:35.000,2025-08-17,12:13:35,114-EN009-07850-03,3.往中山南路,121.198631,25.058819,RealData
A000001,2025-08-17 12:14:05.000,2025-08-17,12:14:05,114-EN009-07851-02,2.往華興路,121.196197,25.056832,RealData
A000001,2025-08-17 12:57:19.000,2025-08-17,12:57:19,114-EN011-07860-03,3.往埔心,121.21621,25.056955,RealData
A000001,2025-08-17 13:02:43.000,2025-08-17,13:02:43,114-EN013-03700-06,6.往埔心里,121.254467,25.077273,RealData
A000001,2025-08-17 13:03:50.000,2025-08-17,13:03:50,114-EN013-03700-03,3.往菓林路,121.255596,25.077637,RealData
A000001,2025-08-17 14:11:05.000,2025-08-17,14:11:05,114-EN013-03700-03,3.往菓林路,121.255596,25.077637,RealData
A000001,2025-08-17 14:11:59.000,2025-08-17,14:11:59,114-EN013-03700-06,6.往埔心里,121.254467,25.077273,RealData
A000001,2025-08-17 14:26:30.000,2025-08-17,14:26:30,114-EN013-03700-06,6.往埔心里,121.254467,25.077273,RealData
A000001,2025-08-17 14:27:08.000,2025-08-17,14:27:08,114-EN013-03700-03,3.往菓林路,121.255596,25.077637,RealData
A000004,2025-08-17 15:25:01.000,2025-08-17,15:25:01,114-EP043-01270-03,3.往環北路,121.223825,24.968915,RealData
A000001,2025-08-17 15:27:34.000,2025-08-17,15:27:34,114-ES084-05620-02,2.往頂湖路,121.366503,25.034685,RealData
A000001,2025-08-17 15:27:47.000,2025-08-17,15:27:47,114-ES084-05620-03,3.往頂湖路,121.36681,25.034412,RealData
A000004,2025-08-17 15:31:04.000,2025-08-17,15:31:04,114-EP038-07720-05,5.往中正路,121.221985,24.956822,RealData
A000004,2025-08-17 15:32:26.000,2025-08-17,15:32:26,114-EP038-01030-03,3.往康樂路,121.220475,24.955631,RealData
A000001,2025-08-17 16:31:06.000,2025-08-17,16:31:06,114-ES084-05620-02,2.往頂湖路,121.366503,25.034685,RealData
A000001,2025-08-17 18:22:49.000,2025-08-17,18:22:49,114-ES063-05580-03,3.往忠義路一段內車道,121.349967,25.020432,RealData
A000001,2025-08-17 18:22:53.000,2025-08-17,18:22:53,114-ES063-05580-04,4.往忠義路一段外車道,121.349903,25.020451,RealData
A000003,2025-08-17 18:47:23.000,2025-08-17,18:47:23,114-EN012-03040-06,6.往環區西路外車道,121.162388,25.056428,RealData
A000003,2025-08-17 18:47:24.000,2025-08-17,18:47:24,114-EN012-03040-05,5.往環區西路內車道,121.16238,25.056448,RealData
A000003,2025-08-17 19:28:05.000,2025-08-17,19:28:05,114-EN012-03040-02,2.往草漯內車道,121.161047,25.055965,RealData
A000003,2025-08-17 19:28:08.000,2025-08-17,19:28:08,114-EN012-03040-03,3.往草漯外車道,121.161027,25.055986,RealData
A000002,2025-08-17 22:21:23.000,2025-08-17,22:21:23,114-EV081-07180-02,2.往大新路,121.256728,25.025773,RealData
A000002,2025-08-17 22:22:10.000,2025-08-17,22:22:10,114-EV081-07180-04,4.往大竹北路15巷,121.256699,25.026196,RealData
A000002,2025-08-17 22:30:05.000,2025-08-17,22:30:05,114-EN011-03280-01,1.往領航北路四段內車道,121.22523,25.023555,RealData
A000002,2025-08-17 22:30:07.000,2025-08-17,22:30:07,114-EN011-03280-02,2.往領航北路四段外車道,121.225163,25.023507,RealData
A000002,2025-08-17 22:46:22.000,2025-08-17,22:46:22,114-EV081-07110-03,3.往富國路,121.249649,25.045878,RealData
A000002,2025-08-17 23:17:36.000,2025-08-17,23:17:36,114-EV081-07180-02,2.往大新路,121.256728,25.025773,RealData
A000001,2025-08-17 23:31:29.000,2025-08-17,23:31:29,114-ES068-05670-04,4.往壽山路口,121.330465,24.993311,RealData
A000001,2025-08-17 23:40:55.000,2025-08-17,23:40:55,114-EM008-00250-04,4.往春日路往健行路,121.308043,25.021063,RealData
A000001,2025-08-17 23:42:36.000,2025-08-17,23:42:36,114-EM008-07610-06,6.往春日路1488巷往巷內,121.304712,25.029458,RealData
A000001,2025-08-18 00:09:23.000,2025-08-18,00:09:23,114-EN013-03700-03,3.往菓林路,121.255596,25.077637,RealData
A000001,2025-08-18 00:10:16.000,2025-08-18,00:10:16,114-EN013-03700-06,6.往埔心里,121.254467,25.077273,RealData
A000001,2025-08-18 08:43:02.000,2025-08-18,08:43:02,114-EV081-07180-04,4.往大竹北路15巷,121.256699,25.026196,RealData
A000001,2025-08-18 08:55:03.000,2025-08-18,08:55:03,114-EN013-03410-02,2.三民路二段往三民路外車道,121.260209,25.076515,RealData
A000001,2025-08-18 08:55:03.000,2025-08-18,08:55:03,114-EN013-03410-03,3.三民路二段往三民路內車道,121.260198,25.076506,RealData
A000002,2025-08-18 12:52:48.000,2025-08-18,12:52:48,114-EV081-07180-02,2.往大新路,121.256728,25.025773,RealData
A000002,2025-08-18 14:03:37.000,2025-08-18,14:03:37,114-EV081-07180-02,2.往大新路,121.256728,25.025773,RealData
A000001,2025-08-18 16:45:25.000,2025-08-18,16:45:25,114-EV083-07070-02,2.西濱路一段往觀音內車道,121.265947,25.118049,RealData
A000001,2025-08-18 17:00:20.000,2025-08-18,17:00:20,114-EN012-08170-03,3.往環區東路,121.179331,25.059131,RealData
A000005,2025-08-18 21:17:30.000,2025-08-18,21:17:30,114-ET072-06380-04,4.往仰德大道,121.284016,24.970003,RealData
A000005,2025-08-18 21:17:58.000,2025-08-18,21:17:58,114-ET072-06370-02,2.往國際路一段,121.287157,24.970423,RealData
A000005,2025-08-18 21:33:00.000,2025-08-18,21:33:00,114-EM001-00340-04,4.往萬壽路二段內車道,121.323293,24.992089,RealData
A000005,2025-08-18 21:38:49.000,2025-08-18,21:38:49,114-ES063-05600-05,5.長壽路往長峰路方向內車道,121.338894,24.999201,RealData
A000003,2025-08-18 22:07:17.000,2025-08-18,22:07:17,114-EN012-03040-05,5.往環區西路內車道,121.16238,25.056448,RealData
A000002,2025-08-18 22:09:20.000,2025-08-18,22:09:20,114-EV081-07180-02,2.往大新路,121.256728,25.025773,RealData
A000002,2025-08-18 22:09:44.000,2025-08-18,22:09:44,114-EV081-07180-04,4.往大竹北路15巷,121.256699,25.026196,RealData
A000002,2025-08-18 22:18:20.000,2025-08-18,22:18:20,114-EN011-03280-01,1.往領航北路四段內車道,121.22523,25.023555,RealData
A000002,2025-08-18 22:18:21.000,2025-08-18,22:18:21,114-EN011-03280-02,2.往領航北路四段外車道,121.225163,25.023507,RealData
A000002,2025-08-18 22:27:40.000,2025-08-18,22:27:40,114-EN011-03290-03,3.往中正路二段內車道,121.225815,25.023793,RealData
A000002,2025-08-18 22:31:25.000,2025-08-18,22:31:25,114-EV081-07110-03,3.往富國路,121.249649,25.045878,RealData
A000003,2025-08-18 22:44:53.000,2025-08-18,22:44:53,114-EN012-03040-02,2.往草漯內車道,121.161047,25.055965,RealData
A000003,2025-08-18 22:45:26.000,2025-08-18,22:45:26,114-EN012-03040-03,3.往草漯外車道,121.161027,25.055986,RealData
A000002,2025-08-18 22:57:51.000,2025-08-18,22:57:51,114-EV081-07180-02,2.往大新路,121.256728,25.025773,RealData
A000005,2025-08-18 22:58:08.000,2025-08-18,22:58:08,114-ES063-05560-04,4.往宏洲街,121.343899,25.00976,RealData
A000005,2025-08-18 23:01:03.000,2025-08-18,23:01:03,114-ES063-05560-03,3.往光明街往中坑街,121.343662,25.0101829999999,RealData
A000005,2025-08-18 23:18:43.000,2025-08-18,23:18:43,114-EM005-07670-02,2.往中山路內車道往中壢,121.293454,24.991259,RealData
A000005,2025-08-18 23:24:05.000,2025-08-18,23:24:05,114-ET072-05930-03,3.往龍祥街,121.271954,24.979301,RealData
A000001,2025-08-19 00:43:07.000,2025-08-19,00:43:07,114-EN009-03320-03,3.往和平西路,121.202716,25.0326579999999,RealData
A000001,2025-08-19 00:43:54.000,2025-08-19,00:43:54,114-EN009-03320-02,2.往中山南路二段56巷,121.202966,25.03227,RealData
A000005,2025-08-19 02:01:22.000,2025-08-19,02:01:22,114-EP040-07770-02,2.往中山東路一段,121.235457,24.955697,RealData
A000005,2025-08-19 02:01:28.000,2025-08-19,02:01:28,114-EP040-01210-07,7.往中山東路一段,121.233181,24.958422,RealData
A000005,2025-08-19 02:47:42.000,2025-08-19,02:47:42,114-EP040-01210-07,7.往中山東路一段,121.233181,24.958422,RealData
A000005,2025-08-19 02:48:19.000,2025-08-19,02:48:19,114-EP040-07770-04,4.往中山東路二段,121.235869,24.955195,RealData
A000005,2025-08-19 05:37:44.000,2025-08-19,05:37:44,114-ER062-04950-04,4.往龍福路,121.249738,24.926511,RealData
A000001,2025-08-19 10:30:34.000,2025-08-19,10:30:34,114-EV081-08050-03,3.往大福路,121.255708,25.021851,RealData
A000001,2025-08-19 10:30:38.000,2025-08-19,10:30:38,114-EV081-08050-06,6.往大新路,121.255131,25.023157,RealData
A000001,2025-08-19 10:31:35.000,2025-08-19,10:31:35,114-EV081-07210-05,5.往大新三街,121.257295,25.020669,RealData
A000001,2025-08-19 10:31:40.000,2025-08-19,10:31:40,114-EV081-07210-03,3.往大興十一街,121.257569,25.020881,RealData
A000001,2025-08-19 10:31:56.000,2025-08-19,10:31:56,114-EV081-08060-03,3.往大興路,121.260122,25.020842,RealData
A000001,2025-08-19 10:32:08.000,2025-08-19,10:32:08,114-EV081-08060-04,4.往大竹路,121.260483,25.021158,RealData
A000001,2025-08-19 18:43:04.000,2025-08-19,18:43:04,114-EV081-07520-03,3.往上竹五街,121.262595,25.020453,RealData
A000001,2025-08-19 18:43:19.000,2025-08-19,18:43:19,114-EV081-08060-02,2.往上興路,121.260614,25.02079,RealData
A000001,2025-08-19 18:43:24.000,2025-08-19,18:43:24,114-EV081-08060-03,3.往大興路,121.260122,25.020842,RealData
A000001,2025-08-19 18:43:49.000,2025-08-19,18:43:49,114-EV081-07210-02,2.往福興街,121.257627,25.020427,RealData
A000001,2025-08-19 18:43:50.000,2025-08-19,18:43:50,114-EV081-07210-03,3.往大興十一街,121.257569,25.020881,RealData
A000001,2025-08-19 18:44:03.000,2025-08-19,18:44:03,114-EV081-08040-02,2.往大福路,121.257081,25.0224,RealData
A000001,2025-08-19 18:44:15.000,2025-08-19,18:44:15,114-EV081-08040-04,4.往大新路,121.256946,25.022702,RealData
A000005,2025-08-19 21:05:16.000,2025-08-19,21:05:16,114-ER061-04740-02,2.往金陵路三段88巷,121.227404,24.928252,RealData
A000005,2025-08-19 21:07:50.000,2025-08-19,21:07:50,114-ER060-07920-04,4.往金陵路三段,121.223054,24.940413,RealData
A000005,2025-08-19 21:09:34.000,2025-08-19,21:09:34,114-ER060-07920-03,3.往環中東路二段,121.223623,24.940877,RealData
A000005,2025-08-19 21:10:59.000,2025-08-19,21:10:59,114-EP041-01400-03,3.往後興路,121.229749,24.944573,RealData
A000005,2025-08-19 21:11:11.000,2025-08-19,21:11:11,114-EP040-01410-02,2.往昆明街,121.230944,24.945361,RealData
A000005,2025-08-19 21:17:48.000,2025-08-19,21:17:48,114-EP040-01380-02,2.往永福路,121.249597,24.958036,RealData
A000005,2025-08-19 21:38:32.000,2025-08-19,21:38:32,114-EP040-01390-02,2.往中山東路二段,121.247376,24.956543,RealData
A000002,2025-08-19 21:41:33.000,2025-08-19,21:41:33,114-EV081-07180-02,2.往大新路,121.256728,25.025773,RealData
A000005,2025-08-19 22:00:49.000,2025-08-19,22:00:49,114-EP041-01400-04,4.往林森路,121.229213,24.944372,RealData
A000005,2025-08-19 22:03:04.000,2025-08-19,22:03:04,114-ER060-07920-05,5.往德育路二段,121.222857,24.940679,RealData
A000005,2025-08-19 22:07:29.000,2025-08-19,22:07:29,114-ER061-04650-08,8.往正義路,121.223517,24.928104,RealData
A000005,2025-08-19 22:07:39.000,2025-08-19,22:07:39,114-ER061-04650-06,6.往金陵路,121.224388,24.927711,RealData
A000005,2025-08-19 22:07:55.000,2025-08-19,22:07:55,114-ER061-04740-04,4.往大仁街4巷,121.227029,24.92852,RealData
A000005,2025-08-19 22:08:18.000,2025-08-19,22:08:18,114-ER061-04740-02,2.往金陵路三段88巷,121.227404,24.928252,RealData
A000005,2025-08-19 22:09:39.000,2025-08-19,22:09:39,114-ER061-04760-04,4.往建安路,121.229359,24.920045,RealData
A000002,2025-08-19 22:12:47.000,2025-08-19,22:12:47,114-EV081-07180-02,2.往大新路,121.256728,25.025773,RealData
A000005,2025-08-19 22:15:55.000,2025-08-19,22:15:55,114-ER061-04700-02,2.往新華北路,121.251738,24.917492,RealData
A000001,2025-08-19 22:30:37.000,2025-08-19,22:30:37,114-EV081-07180-04,4.往大竹北路15巷,121.256699,25.026196,RealData
A000005,2025-08-19 22:33:31.000,2025-08-19,22:33:31,114-ER061-04700-02,2.往新華北路,121.251738,24.917492,RealData
A000005,2025-08-19 22:38:25.000,2025-08-19,22:38:25,114-EP041-07790-07,7.往龍門街,121.24357,24.926384,RealData
A000005,2025-08-19 22:41:56.000,2025-08-19,22:41:56,114-EP041-01400-02,2.往健行路,121.229431,24.945089,RealData
A000005,2025-08-19 22:42:16.000,2025-08-19,22:42:16,114-EP038-01340-04,4.往環中東路二段,121.228904,24.946377,RealData
A000005,2025-08-19 22:43:20.000,2025-08-19,22:43:20,114-EP038-01340-05,5.往中北路二段,121.227677,24.9473,RealData
A000005,2025-08-19 23:13:45.000,2025-08-19,23:13:45,114-EP038-07720-05,5.往中正路,121.221985,24.956822,RealData
A000005,2025-08-19 23:17:32.000,2025-08-19,23:17:32,114-EP038-01340-05,5.往中北路二段,121.227677,24.9473,RealData
A000005,2025-08-19 23:17:53.000,2025-08-19,23:17:53,114-EP038-01340-04,4.往環中東路二段,121.228904,24.946377,RealData
A000005,2025-08-19 23:18:03.000,2025-08-19,23:18:03,114-EP041-01400-02,2.往健行路,121.229431,24.945089,RealData
A000005,2025-08-19 23:19:03.000,2025-08-19,23:19:03,114-EP041-11110-02,2.往龍岡路二段321巷口,121.230052,24.942212,RealData
A000001,2025-08-20 01:12:46.000,2025-08-20,01:12:46,114-EV083-08850-06,6.往山腳橋,121.279874,25.081523,RealData
A000005,2025-08-20 02:45:53.000,2025-08-20,02:45:53,114-EP041-11110-02,2.往龍岡路二段321巷口,121.230052,24.942212,RealData
A000005,2025-08-20 02:46:27.000,2025-08-20,02:46:27,114-EP041-01400-04,4.往林森路,121.229213,24.944372,RealData
A000005,2025-08-20 02:47:29.000,2025-08-20,02:47:29,114-ER060-07920-05,5.往德育路二段,121.222857,24.940679,RealData
A000005,2025-08-20 03:08:49.000,2025-08-20,03:08:49,114-ER060-07920-04,4.往金陵路三段,121.223054,24.940413,RealData
A000005,2025-08-20 03:11:20.000,2025-08-20,03:11:20,114-ER061-04750-03,3.往龍泉一街,121.228725,24.929053,RealData
A000005,2025-08-20 03:35:49.000,2025-08-20,03:35:49,114-EM005-07670-04,4.往延壽街往國際路,121.293672082492,24.9915484597111,RealData
A000005,2025-08-20 03:35:49.000,2025-08-20,03:35:49,114-EM005-07670-05,5.往中山路內車道往正光路,121.294271,24.991048,RealData
A000005,2025-08-20 03:44:35.000,2025-08-20,03:44:35,114-EM005-00660-03,3.往泰山街,121.298494,24.9888,RealData
A000005,2025-08-20 03:45:01.000,2025-08-20,03:45:01,114-EM005-00660-04,4.往宏昌六街往壽昌街,121.298463,24.988679,RealData
A000005,2025-08-20 03:46:50.000,2025-08-20,03:46:50,114-EM005-00210-04,4.往宏昌六街往國際路一段,121.292027,24.987067,RealData
A000005,2025-08-20 03:46:59.000,2025-08-20,03:46:59,114-EM005-00210-05,5.往宏昌六街往中平路,121.292344,24.98711,RealData
A000005,2025-08-20 03:51:35.000,2025-08-20,03:51:35,114-ET072-06370-02,2.往國際路一段,121.287157,24.970423,RealData
A000005,2025-08-20 03:52:11.000,2025-08-20,03:52:11,114-ET072-06380-04,4.往仰德大道,121.284016,24.970003,RealData
A000005,2025-08-20 05:31:22.000,2025-08-20,05:31:22,114-ER062-04950-04,4.往龍福路,121.249738,24.926511,RealData
A000005,2025-08-20 05:41:56.000,2025-08-20,05:41:56,114-ER061-04700-02,2.往新華北路,121.251738,24.917492,RealData
A000005,2025-08-20 05:42:07.000,2025-08-20,05:42:07,114-ER061-04700-05,5.往東光路,121.252424,24.917813,RealData
A000005,2025-08-20 05:44:10.000,2025-08-20,05:44:10,114-ET073-06110-03,3.往平鎮龍南路,121.260553,24.9311519999999,RealData
A000005,2025-08-20 05:44:46.000,2025-08-20,05:44:46,114-ET073-06110-04,4.往長興路,121.260662,24.931969,RealData
A000005,2025-08-20 05:47:09.000,2025-08-20,05:47:09,114-EP045-01480-03,3.往中山東路三段347巷口,121.252238,24.939897,RealData
A000005,2025-08-20 10:03:29.000,2025-08-20,10:03:29,114-ET073-06050-03,3.往福國路,121.291223,24.953117,RealData
A000005,2025-08-20 10:03:48.000,2025-08-20,10:03:48,114-ET073-06050-05,5.往廣興路,121.290652,24.952765,RealData
A000005,2025-08-20 10:06:49.000,2025-08-20,10:06:49,114-ET073-06120-03,3.往大湳方向,121.277243,24.941914,RealData
A000005,2025-08-20 10:07:12.000,2025-08-20,10:07:12,114-ET073-10330-02,2.往新興路往廣興路,121.272404,24.93932,RealData
A000005,2025-08-20 10:14:57.000,2025-08-20,10:14:57,114-EP045-01480-03,3.往中山東路三段347巷口,121.252238,24.939897,RealData
A000001,2025-08-20 14:40:52.000,2025-08-20,14:40:52,114-EV081-07180-04,4.往大竹北路15巷,121.256699,25.026196,RealData
A000004,2025-08-20 15:53:14.000,2025-08-20,15:53:14,114-EP043-07800-04,4.往南園二路,121.236143,24.969493,RealData
A000004,2025-08-20 15:53:15.000,2025-08-20,15:53:15,114-EP043-07800-05,5.往南園二路,121.236147,24.969435,RealData
A000001,2025-08-20 16:54:23.000,2025-08-20,16:54:23,114-EV083-07260-04,4.往外社,121.298085,25.083527,RealData
A000001,2025-08-20 17:23:30.000,2025-08-20,17:23:30,114-ES063-05580-04,4.往忠義路一段外車道,121.349903,25.020451,RealData
A000001,2025-08-20 17:23:30.000,2025-08-20,17:23:30,114-ES063-05580-03,3.往忠義路一段內車道,121.349967,25.020432,RealData
A000005,2025-08-20 18:49:52.000,2025-08-20,18:49:52,114-ET073-06110-03,3.往平鎮龍南路,121.260553,24.9311519999999,RealData
A000005,2025-08-20 18:53:14.000,2025-08-20,18:53:14,114-ER061-04700-02,2.往新華北路,121.251738,24.917492,RealData
A000004,2025-08-20 21:40:40.000,2025-08-20,21:40:40,114-EP038-01280-04,4.往中壢後站,121.229026,24.954175,RealData
A000002,2025-08-20 22:39:27.000,2025-08-20,22:39:27,114-EV081-07180-02,2.往大新路,121.256728,25.025773,RealData
A000002,2025-08-20 22:39:42.000,2025-08-20,22:39:42,114-EV081-07180-04,4.往大竹北路15巷,121.256699,25.026196,RealData
A000005,2025-08-20 22:43:18.000,2025-08-20,22:43:18,114-ER060-07920-03,3.往環中東路二段,121.223623,24.940877,RealData
A000005,2025-08-20 22:45:14.000,2025-08-20,22:45:14,114-EP041-01400-02,2.往健行路,121.229431,24.945089,RealData
A000005,2025-08-20 22:45:43.000,2025-08-20,22:45:43,114-EP038-01340-05,5.往中北路二段,121.227677,24.9473,RealData
A000002,2025-08-20 22:56:12.000,2025-08-20,22:56:12,114-EN011-03290-03,3.往中正路二段內車道,121.225815,25.023793,RealData
A000002,2025-08-20 23:05:32.000,2025-08-20,23:05:32,114-EM005-07650-05,5.往大興西路三段慢車道往永安路,121.287541,25.002551,RealData
A000002,2025-08-20 23:08:43.000,2025-08-20,23:08:43,114-EM004-07630-04,4.往力行路,121.294841,25.005751,RealData
A000002,2025-08-20 23:10:27.000,2025-08-20,23:10:27,114-EM004-00360-05,5.往慈光街往永安路,121.297737,25.004872,RealData
A000002,2025-08-20 23:11:46.000,2025-08-20,23:11:46,114-EM004-07630-04,4.往力行路,121.294841,25.005751,RealData
A000002,2025-08-20 23:11:53.000,2025-08-20,23:11:53,114-EM004-07630-05,5.往大興西路三段,121.294678,25.005839,RealData
A000002,2025-08-20 23:15:31.000,2025-08-20,23:15:31,114-EM004-00610-04,4.往永安路往大竹,121.279966,25.010566,RealData
A000002,2025-08-20 23:21:06.000,2025-08-20,23:21:06,114-EV081-07180-02,2.往大新路,121.256728,25.025773,RealData
A000001,2025-08-20 23:22:54.000,2025-08-20,23:22:54,114-ES068-05670-04,4.往壽山路口,121.330465,24.993311,RealData
A000001,2025-08-20 23:32:05.000,2025-08-20,23:32:05,114-EM008-00250-04,4.往春日路往健行路,121.308043,25.021063,RealData
A000001,2025-08-20 23:34:32.000,2025-08-20,23:34:32,114-EM008-07610-06,6.往春日路1488巷往巷內,121.304712,25.029458,RealData
A000001,2025-08-20 23:45:55.000,2025-08-20,23:45:55,114-EV080-07100-03,3.往山鼻二路內車道,121.285503,25.0772859999999,RealData
A000005,2025-08-20 23:52:54.000,2025-08-20,23:52:54,114-EP040-07770-04,4.往中山東路二段,121.235869,24.955195,RealData
A000001,2025-08-21 00:41:41.000,2025-08-21,00:41:41,114-EV083-08850-03,3.往坑口路,121.279679,25.081204,RealData
A000001,2025-08-21 00:41:45.000,2025-08-21,00:41:45,114-EV083-08850-06,6.往山腳橋,121.279874,25.081523,RealData
A000005,2025-08-21 01:08:20.000,2025-08-21,01:08:20,114-EP038-07730-03,3.往延平路,121.224353,24.95599,RealData
A000005,2025-08-21 01:10:27.000,2025-08-21,01:10:27,114-EP040-07770-04,4.往中山東路二段,121.235869,24.955195,RealData
A000005,2025-08-21 01:14:05.000,2025-08-21,01:14:05,114-EP040-01250-03,3.往榮民南路,121.250051,24.956937,RealData
A000005,2025-08-21 05:36:00.000,2025-08-21,05:36:00,114-ER062-04950-04,4.往龍福路,121.249738,24.926511,RealData
A000005,2025-08-21 20:08:13.000,2025-08-21,20:08:13,114-EP040-07770-02,2.往中山東路一段,121.235457,24.955697,RealData
A000005,2025-08-21 20:08:54.000,2025-08-21,20:08:54,114-EP040-01210-07,7.往中山東路一段,121.233181,24.958422,RealData
A000005,2025-08-21 20:14:47.000,2025-08-21,20:14:47,114-EP043-07800-04,4.往南園二路,121.236143,24.969493,RealData
A000005,2025-08-21 20:14:48.000,2025-08-21,20:14:48,114-EP043-07800-05,5.往南園二路,121.236147,24.969435,RealData
A000001,2025-08-21 22:08:46.000,2025-08-21,22:08:46,114-EV081-07200-04,4.往大興街,121.256332,25.024863,RealData
A000005,2025-08-21 22:17:09.000,2025-08-21,22:17:09,114-EP038-07740-05,5.往慈惠一街口,121.223822,24.960024,RealData
A000005,2025-08-21 22:17:12.000,2025-08-21,22:17:12,114-EP038-01780-05,5.往慈惠二街,121.223542,24.960588,RealData
A000005,2025-08-21 22:22:22.000,2025-08-21,22:22:22,114-EP038-07740-04,4.往新生路,121.222974,24.96005,RealData
A000005,2025-08-21 22:22:39.000,2025-08-21,22:22:39,114-EP038-07740-02,2.往中央西路,121.22265,24.959057,RealData
A000001,2025-08-21 22:24:14.000,2025-08-21,22:24:14,114-EN009-07850-03,3.往中山南路,121.198631,25.058819,RealData
A000005,2025-08-21 22:24:16.000,2025-08-21,22:24:16,114-EP038-07720-05,5.往中正路,121.221985,24.956822,RealData
A000005,2025-08-21 22:24:50.000,2025-08-21,22:24:50,114-EP038-01030-03,3.往康樂路,121.220475,24.955631,RealData
A000002,2025-08-21 22:59:23.000,2025-08-21,22:59:23,114-EV081-07180-02,2.往大新路,121.256728,25.025773,RealData
A000002,2025-08-21 23:03:09.000,2025-08-21,23:03:09,114-EV081-08060-04,4.往大竹路,121.260483,25.021158,RealData
A000002,2025-08-21 23:03:23.000,2025-08-21,23:03:23,114-EV081-08060-02,2.往上興路,121.260614,25.02079,RealData
A000002,2025-08-21 23:07:03.000,2025-08-21,23:07:03,114-EV081-07230-04,4.往中興六街,121.262003,25.01411,RealData
A000002,2025-08-21 23:20:21.000,2025-08-21,23:20:21,114-EV081-07230-04,4.往中興六街,121.262003,25.01411,RealData
A000002,2025-08-21 23:22:27.000,2025-08-21,23:22:27,114-EV081-08060-04,4.往大竹路,121.260483,25.021158,RealData
A000002,2025-08-21 23:22:33.000,2025-08-21,23:22:33,114-EV081-08060-02,2.往上興路,121.260614,25.02079,RealData
A000002,2025-08-21 23:25:16.000,2025-08-21,23:25:16,114-EV081-07180-02,2.往大新路,121.256728,25.025773,RealData
A000005,2025-08-21 23:49:08.000,2025-08-21,23:49:08,114-ER060-07920-04,4.往金陵路三段,121.223054,24.940413,RealData
A000005,2025-08-21 23:51:56.000,2025-08-21,23:51:56,114-ER061-04750-03,3.往龍泉一街,121.228725,24.929053,RealData
A000005,2025-08-21 23:52:25.000,2025-08-21,23:52:25,114-ER062-05420-04,4.往龍泉街137巷,121.231184,24.931492,RealData
A000005,2025-08-22 00:20:31.000,2025-08-22,00:20:31,114-EP041-01400-04,4.往林森路,121.229213,24.944372,RealData
A000005,2025-08-22 00:21:53.000,2025-08-22,00:21:53,114-ER060-07920-05,5.往德育路二段,121.222857,24.940679,RealData
A000005,2025-08-22 00:37:57.000,2025-08-22,00:37:57,114-ER060-07920-04,4.往金陵路三段,121.223054,24.940413,RealData
A000005,2025-08-22 00:39:58.000,2025-08-22,00:39:58,114-ER061-04750-03,3.往龍泉一街,121.228725,24.929053,RealData
A000005,2025-08-22 00:40:30.000,2025-08-22,00:40:30,114-ER062-05420-04,4.往龍泉街137巷,121.231184,24.931492,RealData
A000005,2025-08-22 05:32:56.000,2025-08-22,05:32:56,114-ER062-04950-04,4.往龍福路,121.249738,24.926511,RealData
A000005,2025-08-22 05:35:41.000,2025-08-22,05:35:41,114-ER062-05390-03,3.往龍南路,121.250319,24.920976,RealData
A000001,2025-08-22 07:02:20.000,2025-08-22,07:02:20,114-EP041-01960-02,2.往龍文街,121.256128,24.93371,RealData
A000001,2025-08-22 09:57:14.000,2025-08-22,09:57:14,114-EN009-07850-03,3.往中山南路,121.198631,25.058819,RealData
A000001,2025-08-22 10:12:03.000,2025-08-22,10:12:03,114-EN013-03700-06,6.往埔心里,121.254467,25.077273,RealData
A000001,2025-08-22 10:19:16.000,2025-08-22,10:19:16,114-EN013-03700-03,3.往菓林路,121.255596,25.077637,RealData
A000001,2025-08-22 10:34:21.000,2025-08-22,10:34:21,114-EV082-07050-03,3.往桃園內車道,121.286373,25.035321,RealData
A000001,2025-08-22 10:37:12.000,2025-08-22,10:37:12,114-EM008-07620-07,7.往中正路內車道往南平路,121.295488,25.022482,RealData
A000001,2025-08-22 10:37:15.000,2025-08-22,10:37:15,114-EM008-07620-08,8.往中正路外車道往南平路,121.2955,25.022458,RealData
A000001,2025-08-22 10:37:42.000,2025-08-22,10:37:42,114-EM008-00100-02,2.中正路往南平路內車道,121.296449,25.020503,RealData
A000001,2025-08-22 10:37:43.000,2025-08-22,10:37:43,114-EM008-00100-03,3.中正路往南平路外車道,121.296427,25.0205,RealData
A000002,2025-08-22 10:51:41.000,2025-08-22,10:51:41,114-EV081-07180-02,2.往大新路,121.256728,25.025773,RealData
A000002,2025-08-22 10:58:24.000,2025-08-22,10:58:24,114-EV081-08060-04,4.往大竹路,121.260483,25.021158,RealData
A000002,2025-08-22 10:58:35.000,2025-08-22,10:58:35,114-EV081-08060-02,2.往上興路,121.260614,25.02079,RealData
A000002,2025-08-22 11:00:25.000,2025-08-22,11:00:25,114-EV081-07230-04,4.往中興六街,121.262003,25.01411,RealData
A000002,2025-08-22 11:45:19.000,2025-08-22,11:45:19,114-EM005-07660-03,3.往國際路二段外車道往大興西路三段,121.28791,24.996428,RealData
A000002,2025-08-22 11:45:19.000,2025-08-22,11:45:19,114-EM005-07660-02,2.往國際路二段內車道往大興西路三段,121.287908,24.996396,RealData
A000002,2025-08-22 11:49:21.000,2025-08-22,11:49:21,114-EM005-07651-08,8.往國際路二段外車道往永安路,121.286651,25.003162,RealData
A000002,2025-08-22 11:52:10.000,2025-08-22,11:52:10,114-EM004-00610-04,4.往永安路往大竹,121.279966,25.010566,RealData
A000002,2025-08-22 12:00:13.000,2025-08-22,12:00:13,114-EV081-07180-02,2.往大新路,121.256728,25.025773,RealData
A000001,2025-08-22 12:35:02.000,2025-08-22,12:35:02,114-EM008-00100-05,5.中正路往莊敬路一段外車道,121.296383,25.020899,RealData
A000001,2025-08-22 12:35:04.000,2025-08-22,12:35:04,114-EM008-00100-04,4.中正路往莊敬路一段內車道,121.296358,25.0208899999999,RealData
A000001,2025-08-22 12:36:45.000,2025-08-22,12:36:45,114-EM008-07620-05,5.往中正路往中正北路外車道,121.295052,25.02378,RealData
A000001,2025-08-22 12:38:34.000,2025-08-22,12:38:34,114-EV082-07050-06,6.往南竹路外車道,121.285719,25.036077,RealData
A000001,2025-08-22 12:38:34.000,2025-08-22,12:38:34,114-EV082-07050-07,7.往南竹路內車道,121.285685,25.036051,RealData
A000001,2025-08-22 12:51:57.000,2025-08-22,12:51:57,114-EN013-03700-03,3.往菓林路,121.255596,25.077637,RealData
A000001,2025-08-22 12:54:36.000,2025-08-22,12:54:36,114-EN013-03700-03,3.往菓林路,121.255596,25.077637,RealData
A000005,2025-08-22 13:00:04.000,2025-08-22,13:00:04,114-EP041-11110-02,2.往龍岡路二段321巷口,121.230052,24.942212,RealData
A000005,2025-08-22 13:01:44.000,2025-08-22,13:01:44,114-EP041-01400-05,5.往龍岡路三段,121.229696,24.944169,RealData
A000005,2025-08-22 13:01:50.000,2025-08-22,13:01:50,114-EP041-01400-02,2.往健行路,121.229431,24.945089,RealData
A000005,2025-08-22 13:02:37.000,2025-08-22,13:02:37,114-EP038-01340-04,4.往環中東路二段,121.228904,24.946377,RealData
A000005,2025-08-22 13:02:54.000,2025-08-22,13:02:54,114-EP038-01340-05,5.往中北路二段,121.227677,24.9473,RealData
A000005,2025-08-22 13:38:47.000,2025-08-22,13:38:47,114-EP038-07720-04,4.往延平路,121.222176,24.956862,RealData
A000005,2025-08-22 13:39:33.000,2025-08-22,13:39:33,114-EP038-07720-05,5.往中正路,121.221985,24.956822,RealData
A000005,2025-08-22 13:46:40.000,2025-08-22,13:46:40,114-EP038-01340-05,5.往中北路二段,121.227677,24.9473,RealData
A000005,2025-08-22 13:48:10.000,2025-08-22,13:48:10,114-EP038-01340-04,4.往環中東路二段,121.228904,24.946377,RealData
A000005,2025-08-22 13:50:27.000,2025-08-22,13:50:27,114-EP040-01870-04,4.福州路往徐州街,121.234799,24.9486,RealData
A000005,2025-08-22 14:17:02.000,2025-08-22,14:17:02,114-ER062-04950-04,4.往龍福路,121.249738,24.926511,RealData
A000005,2025-08-22 14:18:40.000,2025-08-22,14:18:40,114-ER062-05310-03,3.往中正一路,121.252237,24.927854,RealData
A000005,2025-08-22 15:01:11.000,2025-08-22,15:01:11,114-ER062-04940-04,4.往中正一路,121.252748,24.924093,RealData
A000005,2025-08-22 15:01:47.000,2025-08-22,15:01:47,114-ER062-04940-05,5.往龍南路,121.252279,24.923624,RealData
A000005,2025-08-22 15:02:59.000,2025-08-22,15:02:59,114-EP041-07790-05,5.往龍南路36巷口,121.244897,24.924797,RealData
A000005,2025-08-22 15:03:51.000,2025-08-22,15:03:51,114-EP041-07790-05,5.往龍南路36巷口,121.244897,24.924797,RealData
